{
  "type": "FeatureCollection",
  "features": [
    {
      "type": "Feature",
      "id": "adr_voie_lieu.adrtoilettepublique_latest.37",
      "geometry": { "type": "Point", "coordinates": [4.723116, 45.74329] },
      "properties": {
        "adresse": "22 Avenue Jean Bergeron",
        "codinsee": "69069",
        "infoloc": "Devant mairie",
        "provenance": "Métropole de Lyon",
        "gid": 37
      }
    },
    {
      "type": "Feature",
      "id": "adr_voie_lieu.adrtoilettepublique_latest.42",
      "geometry": { "type": "Point", "coordinates": [4.818718, 45.873012] },
      "properties": {
        "adresse": "Route De St-Germain",
        "codinsee": "69071",
        "infoloc": "Eglise",
        "provenance": "Métropole de Lyon",
        "gid": 42
      }
    },
    {
      "type": "Feature",
      "id": "adr_voie_lieu.adrtoilettepublique_latest.129",
      "geometry": { "type": "Point", "coordinates": [4.726184, 45.754759] },
      "properties": {
        "adresse": "Rue De L'eglise",
        "codinsee": "69205",
        "infoloc": "Place de l'église - à droite de l'église",
        "provenance": "Métropole de Lyon",
        "gid": 129
      }
    },
    {
      "type": "Feature",
      "id": "adr_voie_lieu.adrtoilettepublique_latest.130",
      "geometry": { "type": "Point", "coordinates": [4.805083, 45.878549] },
      "properties": {
        "adresse": "Place Ampère",
        "codinsee": "69207",
        "provenance": "Métropole de Lyon",
        "gid": 130
      }
    },
    {
      "type": "Feature",
      "id": "adr_voie_lieu.adrtoilettepublique_latest.132",
      "geometry": { "type": "Point", "coordinates": [4.825113, 45.837801] },
      "properties": {
        "adresse": "Rue De La Republique",
        "codinsee": "69233",
        "infoloc": "Angle rue du lavoir",
        "provenance": "Métropole de Lyon",
        "gid": 132
      }
    },
    {
      "type": "Feature",
      "id": "adr_voie_lieu.adrtoilettepublique_latest.134",
      "geometry": { "type": "Point", "coordinates": [4.78423, 45.765376] },
      "properties": {
        "adresse": "11 Chemin De La Vernique",
        "codinsee": "69244",
        "provenance": "Métropole de Lyon",
        "gid": 134
      }
    },
    {
      "type": "Feature",
      "id": "adr_voie_lieu.adrtoilettepublique_latest.375",
      "geometry": { "type": "Point", "coordinates": [4.856551, 45.780612] },
      "properties": {
        "adresse": "Allée Du Chalet",
        "codinsee": "69386",
        "infoloc": "Parking des bus",
        "openinghoursspecification": [
          {
            "opens": "06:30",
            "closes": "22:30",
            "dayOfWeek": [
              "http://schema.org/Monday",
              "http://schema.org/Tuesday",
              "http://schema.org/Wednesday",
              "http://schema.org/Thursday",
              "http://schema.org/Friday",
              "http://schema.org/Saturday",
              "http://schema.org/Sunday"
            ]
          }
        ],
        "provenance": "ville de Lyon",
        "gid": 375
      }
    },
    {
      "type": "Feature",
      "id": "adr_voie_lieu.adrtoilettepublique_latest.380",
      "geometry": { "type": "Point", "coordinates": [4.851957, 45.777252] },
      "properties": {
        "adresse": "Place Général Leclerc",
        "codinsee": "69386",
        "infoloc": "Enfants du Rhône",
        "openinghoursspecification": [
          {
            "opens": "06:30",
            "closes": "22:30",
            "dayOfWeek": [
              "http://schema.org/Monday",
              "http://schema.org/Tuesday",
              "http://schema.org/Wednesday",
              "http://schema.org/Thursday",
              "http://schema.org/Friday",
              "http://schema.org/Saturday",
              "http://schema.org/Sunday"
            ]
          }
        ],
        "provenance": "ville de Lyon",
        "gid": 380
      }
    },
    {
      "type": "Feature",
      "id": "adr_voie_lieu.adrtoilettepublique_latest.499",
      "geometry": { "type": "Point", "coordinates": [4.845038, 45.791062] },
      "properties": {
        "adresse": "Angle Rue Du Docteur Laennec /Allée De La Jeunesse",
        "codinsee": "69034",
        "infoloc": "Angle rue docteur laennec",
        "acceshandi": true,
        "payant": false,
        "provenance": "ville de Caluire-et-Cuire, Métropole de Lyon",
        "gid": 499
      }
    },
    {
      "type": "Feature",
      "id": "adr_voie_lieu.adrtoilettepublique_latest.501",
      "geometry": { "type": "Point", "coordinates": [4.836351, 45.787966] },
      "properties": {
        "adresse": "Chemin Du Penthod",
        "codinsee": "69034",
        "infoloc": "Vers rd point",
        "acceshandi": true,
        "payant": false,
        "provenance": "ville de Caluire-et-Cuire, Métropole de Lyon",
        "gid": 501
      }
    },
    {
      "type": "Feature",
      "id": "adr_voie_lieu.adrtoilettepublique_latest.502",
      "geometry": { "type": "Point", "coordinates": [4.853152, 45.800711] },
      "properties": {
        "adresse": "Croisement De La Voie Verte Et Chemin De Crépieux",
        "codinsee": "69034",
        "acceshandi": true,
        "payant": true,
        "provenance": "ville de Caluire-et-Cuire",
        "gid": 502
      }
    },
    {
      "type": "Feature",
      "id": "adr_voie_lieu.adrtoilettepublique_latest.504",
      "geometry": { "type": "Point", "coordinates": [4.84237, 45.79761] },
      "properties": {
        "adresse": "Le Radiant",
        "codinsee": "69034",
        "acceshandi": true,
        "payant": false,
        "provenance": "ville de Caluire-et-Cuire",
        "gid": 504
      }
    },
    {
      "type": "Feature",
      "id": "adr_voie_lieu.adrtoilettepublique_latest.506",
      "geometry": { "type": "Point", "coordinates": [4.828544, 45.793875] },
      "properties": {
        "adresse": "Place De Cuire Le Bas",
        "codinsee": "69034",
        "infoloc": "Angle montee des forts",
        "acceshandi": false,
        "payant": false,
        "provenance": "ville de Caluire-et-Cuire, Métropole de Lyon",
        "gid": 506
      }
    },
    {
      "type": "Feature",
      "id": "adr_voie_lieu.adrtoilettepublique_latest.508",
      "geometry": { "type": "Point", "coordinates": [4.84927, 45.794879] },
      "properties": {
        "adresse": "Place Gutenberg",
        "codinsee": "69034",
        "acceshandi": false,
        "payant": true,
        "provenance": "ville de Caluire-et-Cuire",
        "gid": 508
      }
    },
    {
      "type": "Feature",
      "id": "adr_voie_lieu.adrtoilettepublique_latest.520",
      "geometry": { "type": "Point", "coordinates": [4.838419, 45.877889] },
      "properties": {
        "adresse": "Place De Verdun",
        "codinsee": "69143",
        "infoloc": "Parking place de verdun",
        "acceshandi": true,
        "payant": false,
        "provenance": "ville de Neuville-sur-Saône, Métropole de Lyon",
        "gid": 520
      }
    },
    {
      "type": "Feature",
      "id": "adr_voie_lieu.adrtoilettepublique_latest.575",
      "geometry": { "type": "Point", "coordinates": [4.821917, 45.728274] },
      "properties": {
        "adresse": "2  Place De Montréal",
        "codinsee": "69387",
        "infoloc": "vers lycée international",
        "openinghoursspecification": [
          {
            "opens": "06:30",
            "closes": "22:30",
            "dayOfWeek": [
              "http://schema.org/Monday",
              "http://schema.org/Tuesday",
              "http://schema.org/Wednesday",
              "http://schema.org/Thursday",
              "http://schema.org/Friday",
              "http://schema.org/Saturday",
              "http://schema.org/Sunday"
            ]
          }
        ],
        "provenance": "ville de Lyon",
        "gid": 575
      }
    },
    {
      "type": "Feature",
      "id": "adr_voie_lieu.adrtoilettepublique_latest.577",
      "geometry": { "type": "Point", "coordinates": [4.887219, 45.749927] },
      "properties": {
        "adresse": "Place Du Château",
        "codinsee": "69383",
        "openinghoursspecification": [
          {
            "opens": "06:00",
            "closes": "22:00",
            "dayOfWeek": [
              "http://schema.org/Monday",
              "http://schema.org/Tuesday",
              "http://schema.org/Wednesday",
              "http://schema.org/Thursday",
              "http://schema.org/Friday",
              "http://schema.org/Saturday",
              "http://schema.org/Sunday"
            ]
          }
        ],
        "provenance": "ville de Lyon",
        "gid": 577
      }
    },
    {
      "type": "Feature",
      "id": "adr_voie_lieu.adrtoilettepublique_latest.600",
      "geometry": { "type": "Point", "coordinates": [4.86846, 45.752163] },
      "properties": {
        "adresse": "8 Rue Professeur Paul Sisley",
        "codinsee": "69383",
        "infoloc": "dans parc",
        "provenance": "ville de Lyon",
        "gid": 600
      }
    },
    {
      "type": "Feature",
      "id": "adr_voie_lieu.adrtoilettepublique_latest.615",
      "geometry": { "type": "Point", "coordinates": [4.85064, 45.781322] },
      "properties": {
        "adresse": "Allée Du Lac",
        "codinsee": "69386",
        "infoloc": "Roseraie",
        "openinghoursspecification": [
          {
            "opens": "06:30",
            "closes": "22:30",
            "dayOfWeek": [
              "http://schema.org/Monday",
              "http://schema.org/Tuesday",
              "http://schema.org/Wednesday",
              "http://schema.org/Thursday",
              "http://schema.org/Friday",
              "http://schema.org/Saturday",
              "http://schema.org/Sunday"
            ]
          }
        ],
        "provenance": "ville de Lyon",
        "gid": 615
      }
    },
    {
      "type": "Feature",
      "id": "adr_voie_lieu.adrtoilettepublique_latest.621",
      "geometry": { "type": "Point", "coordinates": [4.852074, 45.778694] },
      "properties": {
        "adresse": "Allée Achille Lignon",
        "codinsee": "69386",
        "infoloc": "côté Parc Tête d'Or",
        "openinghoursspecification": [
          {
            "opens": "05:00",
            "closes": "22:00",
            "dayOfWeek": [
              "http://schema.org/Monday",
              "http://schema.org/Tuesday",
              "http://schema.org/Wednesday",
              "http://schema.org/Thursday",
              "http://schema.org/Friday",
              "http://schema.org/Saturday",
              "http://schema.org/Sunday"
            ]
          }
        ],
        "provenance": "ville de Lyon",
        "gid": 621
      }
    },
    {
      "type": "Feature",
      "id": "adr_voie_lieu.adrtoilettepublique_latest.625",
      "geometry": { "type": "Point", "coordinates": [4.838377, 45.875933] },
      "properties": {
        "adresse": "2811  Quai Pasteur",
        "codinsee": "69143",
        "infoloc": "Vers pont de neuville",
        "acceshandi": true,
        "payant": false,
        "provenance": "ville de Neuville-sur-Saône, Métropole de Lyon",
        "gid": 625
      }
    },
    {
      "type": "Feature",
      "id": "adr_voie_lieu.adrtoilettepublique_latest.626",
      "geometry": { "type": "Point", "coordinates": [4.79851, 45.805189] },
      "properties": {
        "adresse": "Rue Du Commandant Israël",
        "codinsee": "69194",
        "infoloc": "A côté du cimetière",
        "provenance": "ville de Saint-Didier-au-Mont-d’Or",
        "gid": 626
      }
    },
    {
      "type": "Feature",
      "id": "adr_voie_lieu.adrtoilettepublique_latest.633",
      "geometry": { "type": "Point", "coordinates": [4.853154, 45.775446] },
      "properties": {
        "adresse": "Allée Du Parc Aux Daims",
        "codinsee": "69386",
        "infoloc": "Parc aux daims",
        "openinghoursspecification": [
          {
            "opens": "06:30",
            "closes": "22:30",
            "dayOfWeek": [
              "http://schema.org/Monday",
              "http://schema.org/Tuesday",
              "http://schema.org/Wednesday",
              "http://schema.org/Thursday",
              "http://schema.org/Friday",
              "http://schema.org/Saturday",
              "http://schema.org/Sunday"
            ]
          }
        ],
        "provenance": "ville de Lyon",
        "gid": 633
      }
    },
    {
      "type": "Feature",
      "id": "adr_voie_lieu.adrtoilettepublique_latest.638",
      "geometry": { "type": "Point", "coordinates": [4.851705, 45.802398] },
      "properties": {
        "adresse": "Avenue Louis Dufour",
        "codinsee": "69034",
        "infoloc": "Cimetière",
        "acceshandi": true,
        "payant": false,
        "provenance": "ville de Caluire-et-Cuire",
        "gid": 638
      }
    },
    {
      "type": "Feature",
      "id": "adr_voie_lieu.adrtoilettepublique_latest.639",
      "geometry": { "type": "Point", "coordinates": [4.779185, 45.797594] },
      "properties": {
        "adresse": "12  Chemin Du Coulouvrier",
        "codinsee": "69040",
        "provenance": "ville de Champagne-au-Mont-d'Or",
        "gid": 639
      }
    },
    {
      "type": "Feature",
      "id": "adr_voie_lieu.adrtoilettepublique_latest.640",
      "geometry": { "type": "Point", "coordinates": [4.789415, 45.794254] },
      "properties": {
        "adresse": "Rue De La Mairie",
        "codinsee": "69040",
        "infoloc": "à côté de la place de la Liberté",
        "provenance": "ville de Champagne-au-Mont-d'Or",
        "gid": 640
      }
    },
    {
      "type": "Feature",
      "id": "adr_voie_lieu.adrtoilettepublique_latest.641",
      "geometry": { "type": "Point", "coordinates": [4.794444, 45.649275] },
      "properties": {
        "adresse": "Place De La Mairie",
        "codinsee": "69046",
        "provenance": "Métropole de Lyon",
        "gid": 641
      }
    },
    {
      "type": "Feature",
      "id": "adr_voie_lieu.adrtoilettepublique_latest.642",
      "geometry": { "type": "Point", "coordinates": [4.840811, 45.877834] },
      "properties": {
        "adresse": "Place Du 8 Mai",
        "codinsee": "69143",
        "infoloc": "Mairie",
        "provenance": "Métropole de Lyon",
        "gid": 642
      }
    },
    {
      "type": "Feature",
      "id": "adr_voie_lieu.adrtoilettepublique_latest.643",
      "geometry": { "type": "Point", "coordinates": [4.813536, 45.698377] },
      "properties": {
        "adresse": "Chemin Charmet",
        "codinsee": "69152",
        "payant": false,
        "provenance": "ville de Pierre-Bénite",
        "gid": 643
      }
    },
    {
      "type": "Feature",
      "id": "adr_voie_lieu.adrtoilettepublique_latest.644",
      "geometry": { "type": "Point", "coordinates": [4.785712, 45.684054] },
      "properties": {
        "adresse": " Allée De L’équinoxe",
        "codinsee": "69204",
        "acceshandi": true,
        "payant": false,
        "provenance": "ville de Saint-Genis-Laval",
        "gid": 644
      }
    },
    {
      "type": "Feature",
      "id": "adr_voie_lieu.adrtoilettepublique_latest.646",
      "geometry": { "type": "Point", "coordinates": [4.786798, 45.689856] },
      "properties": {
        "adresse": "179  Avenue De Gadagne",
        "codinsee": "69204",
        "infoloc": "Dans les vestiaires",
        "acceshandi": true,
        "payant": false,
        "provenance": "ville de Saint-Genis-Laval",
        "gid": 646
      }
    },
    {
      "type": "Feature",
      "id": "adr_voie_lieu.adrtoilettepublique_latest.647",
      "geometry": { "type": "Point", "coordinates": [4.794956, 45.698607] },
      "properties": {
        "adresse": "45  Avenue Georges Clemenceau",
        "codinsee": "69204",
        "infoloc": "Parc Villa Chapuis",
        "acceshandi": true,
        "payant": false,
        "provenance": "ville de Saint-Genis-Laval",
        "gid": 647
      }
    },
    {
      "type": "Feature",
      "id": "adr_voie_lieu.adrtoilettepublique_latest.648",
      "geometry": { "type": "Point", "coordinates": [4.789191, 45.683623] },
      "properties": {
        "adresse": "80  Route De Vourles",
        "codinsee": "69204",
        "infoloc": "Dans les vestiaires",
        "acceshandi": true,
        "payant": false,
        "provenance": "ville de Saint-Genis-Laval",
        "gid": 648
      }
    },
    {
      "type": "Feature",
      "id": "adr_voie_lieu.adrtoilettepublique_latest.650",
      "geometry": { "type": "Point", "coordinates": [4.872368, 45.703778] },
      "properties": {
        "adresse": "Rue Danielle Casanova",
        "codinsee": "69259",
        "infoloc": "Entre square gabriel péri et rue danielle casanova",
        "provenance": "Métropole de Lyon",
        "gid": 650
      }
    },
    {
      "type": "Feature",
      "id": "adr_voie_lieu.adrtoilettepublique_latest.652",
      "geometry": { "type": "Point", "coordinates": [4.874847, 45.761532] },
      "properties": {
        "adresse": "Jardin Des Tout Petits Adolphe Lafont\r\n",
        "codinsee": "69266",
        "payant": false,
        "provenance": "ville de Villeurbanne",
        "gid": 652
      }
    },
    {
      "type": "Feature",
      "id": "adr_voie_lieu.adrtoilettepublique_latest.653",
      "geometry": { "type": "Point", "coordinates": [4.833732, 45.767154] },
      "properties": {
        "adresse": "20 Place Des Terreaux",
        "codinsee": "69381",
        "infoloc": "dans cour intérieure",
        "openinghoursspecification": [
          {
            "opens": "10:00",
            "closes": "18:00",
            "dayOfWeek": [
              "http://schema.org/Monday",
              "http://schema.org/Tuesday",
              "http://schema.org/Wednesday",
              "http://schema.org/Thursday"
            ]
          },
          {
            "opens": "10:30",
            "closes": "18:00",
            "dayOfWeek": ["http://schema.org/Friday"]
          },
          {
            "opens": "10:00",
            "closes": "18:00",
            "dayOfWeek": [
              "http://schema.org/Saturday",
              "http://schema.org/Sunday"
            ]
          }
        ],
        "provenance": "ville de Lyon",
        "gid": 653
      }
    },
    {
      "type": "Feature",
      "id": "adr_voie_lieu.adrtoilettepublique_latest.655",
      "geometry": { "type": "Point", "coordinates": [4.849836, 45.75351] },
      "properties": {
        "adresse": "7 Place Aristide Briand",
        "codinsee": "69383",
        "infoloc": "en face",
        "openinghoursspecification": [
          {
            "opens": "06:00",
            "closes": "22:00",
            "dayOfWeek": [
              "http://schema.org/Monday",
              "http://schema.org/Tuesday",
              "http://schema.org/Wednesday",
              "http://schema.org/Thursday",
              "http://schema.org/Friday",
              "http://schema.org/Saturday",
              "http://schema.org/Sunday"
            ]
          }
        ],
        "provenance": "ville de Lyon",
        "gid": 655
      }
    },
    {
      "type": "Feature",
      "id": "adr_voie_lieu.adrtoilettepublique_latest.656",
      "geometry": { "type": "Point", "coordinates": [4.81616, 45.776731] },
      "properties": {
        "adresse": "Rue Chazière",
        "codinsee": "69384",
        "openinghoursspecification": [
          {
            "opens": "08:00",
            "closes": "22:00",
            "dayOfWeek": [
              "http://schema.org/Monday",
              "http://schema.org/Tuesday",
              "http://schema.org/Wednesday",
              "http://schema.org/Thursday",
              "http://schema.org/Friday",
              "http://schema.org/Saturday",
              "http://schema.org/Sunday"
            ]
          }
        ],
        "provenance": "ville de Lyon",
        "gid": 656
      }
    },
    {
      "type": "Feature",
      "id": "adr_voie_lieu.adrtoilettepublique_latest.657",
      "geometry": { "type": "Point", "coordinates": [4.823336, 45.778076] },
      "properties": {
        "adresse": "Rue Henri Gorjus",
        "codinsee": "69384",
        "openinghoursspecification": [
          {
            "opens": "08:00",
            "closes": "22:00",
            "dayOfWeek": [
              "http://schema.org/Monday",
              "http://schema.org/Tuesday",
              "http://schema.org/Wednesday",
              "http://schema.org/Thursday",
              "http://schema.org/Friday",
              "http://schema.org/Saturday",
              "http://schema.org/Sunday"
            ]
          }
        ],
        "provenance": "ville de Lyon",
        "gid": 657
      }
    },
    {
      "type": "Feature",
      "id": "adr_voie_lieu.adrtoilettepublique_latest.658",
      "geometry": { "type": "Point", "coordinates": [4.817194, 45.75624] },
      "properties": {
        "adresse": "Rue Des Macchabées",
        "codinsee": "69385",
        "provenance": "ville de Lyon",
        "gid": 658
      }
    },
    {
      "type": "Feature",
      "id": "adr_voie_lieu.adrtoilettepublique_latest.659",
      "geometry": { "type": "Point", "coordinates": [4.789714, 45.755636] },
      "properties": {
        "adresse": "Rue Joliot Curie",
        "codinsee": "69385",
        "provenance": "ville de Lyon",
        "gid": 659
      }
    },
    {
      "type": "Feature",
      "id": "adr_voie_lieu.adrtoilettepublique_latest.660",
      "geometry": { "type": "Point", "coordinates": [4.858057, 45.780005] },
      "properties": {
        "adresse": "Allée Des Ébats",
        "codinsee": "69386",
        "infoloc": "Pelouse des ébats",
        "openinghoursspecification": [
          {
            "opens": "06:30",
            "closes": "22:30",
            "dayOfWeek": [
              "http://schema.org/Monday",
              "http://schema.org/Tuesday",
              "http://schema.org/Wednesday",
              "http://schema.org/Thursday",
              "http://schema.org/Friday",
              "http://schema.org/Saturday",
              "http://schema.org/Sunday"
            ]
          }
        ],
        "provenance": "ville de Lyon",
        "gid": 660
      }
    },
    {
      "type": "Feature",
      "id": "adr_voie_lieu.adrtoilettepublique_latest.661",
      "geometry": { "type": "Point", "coordinates": [4.858552, 45.778607] },
      "properties": {
        "adresse": "Allée Du Chemin De Fer",
        "codinsee": "69386",
        "infoloc": "Chalet des gardes",
        "openinghoursspecification": [
          {
            "opens": "06:30",
            "closes": "22:30",
            "dayOfWeek": [
              "http://schema.org/Monday",
              "http://schema.org/Tuesday",
              "http://schema.org/Wednesday",
              "http://schema.org/Thursday",
              "http://schema.org/Friday",
              "http://schema.org/Saturday",
              "http://schema.org/Sunday"
            ]
          }
        ],
        "provenance": "ville de Lyon",
        "gid": 661
      }
    },
    {
      "type": "Feature",
      "id": "adr_voie_lieu.adrtoilettepublique_latest.662",
      "geometry": { "type": "Point", "coordinates": [4.850988, 45.746122] },
      "properties": {
        "adresse": "2  Ruelle Du Grand Casernement",
        "codinsee": "69387",
        "infoloc": "doûves",
        "openinghoursspecification": [
          {
            "opens": "06:30",
            "closes": "22:30",
            "dayOfWeek": [
              "http://schema.org/Monday",
              "http://schema.org/Tuesday",
              "http://schema.org/Wednesday",
              "http://schema.org/Thursday",
              "http://schema.org/Friday",
              "http://schema.org/Saturday",
              "http://schema.org/Sunday"
            ]
          }
        ],
        "provenance": "ville de Lyon",
        "gid": 662
      }
    },
    {
      "type": "Feature",
      "id": "adr_voie_lieu.adrtoilettepublique_latest.663",
      "geometry": { "type": "Point", "coordinates": [4.825035, 45.726034] },
      "properties": {
        "adresse": "3  Allée Pierre De Coubertin",
        "codinsee": "69387",
        "infoloc": "vers locomotive",
        "openinghoursspecification": [
          {
            "opens": "06:30",
            "closes": "22:30",
            "dayOfWeek": [
              "http://schema.org/Monday",
              "http://schema.org/Tuesday",
              "http://schema.org/Wednesday",
              "http://schema.org/Thursday",
              "http://schema.org/Friday",
              "http://schema.org/Saturday",
              "http://schema.org/Sunday"
            ]
          }
        ],
        "provenance": "ville de Lyon",
        "gid": 663
      }
    },
    {
      "type": "Feature",
      "id": "adr_voie_lieu.adrtoilettepublique_latest.664",
      "geometry": { "type": "Point", "coordinates": [4.79483, 45.777121] },
      "properties": {
        "adresse": "101  Boulevard De La Duchère",
        "codinsee": "69389",
        "infoloc": " centre",
        "provenance": "ville de Lyon",
        "gid": 664
      }
    },
    {
      "type": "Feature",
      "id": "adr_voie_lieu.adrtoilettepublique_latest.665",
      "geometry": { "type": "Point", "coordinates": [4.79483, 45.777121] },
      "properties": {
        "adresse": "249  Boulevard De La Duchère",
        "codinsee": "69389",
        "infoloc": "ouest",
        "provenance": "ville de Lyon",
        "gid": 665
      }
    },
    {
      "type": "Feature",
      "id": "adr_voie_lieu.adrtoilettepublique_latest.666",
      "geometry": { "type": "Point", "coordinates": [4.79483, 45.777121] },
      "properties": {
        "adresse": "259  Boulevard De La Duchère",
        "codinsee": "69389",
        "infoloc": "coté château",
        "provenance": "ville de Lyon",
        "gid": 666
      }
    },
    {
      "type": "Feature",
      "id": "adr_voie_lieu.adrtoilettepublique_latest.667",
      "geometry": { "type": "Point", "coordinates": [4.801274, 45.788656] },
      "properties": {
        "adresse": "40  Boulevard De Balmont",
        "codinsee": "69389",
        "infoloc": "Marché de la Duchère",
        "openinghoursspecification": [
          {
            "opens": "05:00",
            "closes": "22:00",
            "dayOfWeek": [
              "http://schema.org/Monday",
              "http://schema.org/Tuesday",
              "http://schema.org/Wednesday",
              "http://schema.org/Thursday",
              "http://schema.org/Friday",
              "http://schema.org/Saturday",
              "http://schema.org/Sunday"
            ]
          }
        ],
        "provenance": "ville de Lyon",
        "gid": 667
      }
    },
    {
      "type": "Feature",
      "id": "adr_voie_lieu.adrtoilettepublique_latest.677",
      "geometry": { "type": "Point", "coordinates": [4.875776, 45.707364] },
      "properties": {
        "adresse": "69 Rue André Sentuc",
        "codinsee": "69259",
        "acceshandi": true,
        "payant": false,
        "provenance": "ville de Vénissieux",
        "gid": 677
      }
    },
    {
      "type": "Feature",
      "id": "adr_voie_lieu.adrtoilettepublique_latest.696",
      "geometry": { "type": "Point", "coordinates": [4.754112, 45.584952] },
      "properties": {
        "adresse": "Rue De La Paix",
        "codinsee": "69091",
        "infoloc": "Dans le centre commercial 2 Vallées, par l’entrée numéro 3",
        "acceshandi": true,
        "payant": false,
        "provenance": "ville de Givors",
        "gid": 696
      }
    },
    {
      "type": "Feature",
      "id": "adr_voie_lieu.adrtoilettepublique_latest.711",
      "geometry": { "type": "Point", "coordinates": [4.90449, 45.665986] },
      "properties": {
        "adresse": "Rue De L'aviation",
        "codinsee": "69273",
        "infoloc": "Proche angle chemin de grange blanche",
        "provenance": "Métropole de Lyon",
        "gid": 711
      }
    },
    {
      "type": "Feature",
      "id": "adr_voie_lieu.adrtoilettepublique_latest.718",
      "geometry": { "type": "Point", "coordinates": [4.775749, 45.584114] },
      "properties": {
        "adresse": "3  Place De La Liberté",
        "codinsee": "69091",
        "infoloc": "Dans le parc de la Maison du Fleuve Rhône, au niveau de l’entrée 15 Rue Denfert Rochereau",
        "acceshandi": true,
        "payant": false,
        "provenance": "ville de Givors",
        "gid": 718
      }
    },
    {
      "type": "Feature",
      "id": "adr_voie_lieu.adrtoilettepublique_latest.722",
      "geometry": { "type": "Point", "coordinates": [4.767535, 45.589585] },
      "properties": {
        "adresse": "Impasse Platière",
        "codinsee": "69091",
        "infoloc": "Dans le rez-de-chaussée du bâtiment principal, au fond du hall d’entrée, face à la salle polyvalente (accès par la M.J.C.)",
        "acceshandi": true,
        "payant": false,
        "provenance": "ville de Givors",
        "gid": 722
      }
    },
    {
      "type": "Feature",
      "id": "adr_voie_lieu.adrtoilettepublique_latest.723",
      "geometry": { "type": "Point", "coordinates": [4.773719, 45.582493] },
      "properties": {
        "adresse": "Place Camille Vallin",
        "codinsee": "69091",
        "infoloc": "Dans l’Hôtel de Ville, au niveau de la porte arrière du bâtiment côté parking",
        "acceshandi": false,
        "payant": false,
        "provenance": "ville de Givors",
        "gid": 723
      }
    },
    {
      "type": "Feature",
      "id": "adr_voie_lieu.adrtoilettepublique_latest.747",
      "geometry": { "type": "Point", "coordinates": [4.846207, 45.752189] },
      "properties": {
        "adresse": "Place Emir Abd El Kader",
        "codinsee": "69387",
        "provenance": "ville de Lyon",
        "gid": 747
      }
    },
    {
      "type": "Feature",
      "id": "adr_voie_lieu.adrtoilettepublique_latest.750",
      "geometry": { "type": "Point", "coordinates": [4.806598, 45.725817] },
      "properties": {
        "adresse": "Chemin De Chassagnes",
        "codinsee": "69142",
        "infoloc": "Angle allée du cimetière",
        "provenance": "Métropole de Lyon",
        "gid": 750
      }
    },
    {
      "type": "Feature",
      "id": "adr_voie_lieu.adrtoilettepublique_latest.758",
      "geometry": { "type": "Point", "coordinates": [4.894871, 45.748598] },
      "properties": {
        "adresse": "Rue Chambovet",
        "codinsee": "69383",
        "infoloc": "dans parc",
        "openinghoursspecification": [
          {
            "opens": "08:00",
            "closes": "22:00",
            "dayOfWeek": [
              "http://schema.org/Monday",
              "http://schema.org/Tuesday",
              "http://schema.org/Wednesday",
              "http://schema.org/Thursday",
              "http://schema.org/Friday",
              "http://schema.org/Saturday",
              "http://schema.org/Sunday"
            ]
          }
        ],
        "provenance": "ville de Lyon",
        "gid": 758
      }
    },
    {
      "type": "Feature",
      "id": "adr_voie_lieu.adrtoilettepublique_latest.759",
      "geometry": { "type": "Point", "coordinates": [4.867625, 45.77407] },
      "properties": {
        "adresse": "Place Wilson",
        "codinsee": "69266",
        "infoloc": "Au nord ouest de la place",
        "acceshandi": true,
        "payant": true,
        "openinghoursspecification": [
          {
            "opens": "06:00",
            "closes": "22:00",
            "dayOfWeek": [
              "http://schema.org/Monday",
              "http://schema.org/Tuesday",
              "http://schema.org/Wednesday",
              "http://schema.org/Thursday",
              "http://schema.org/Friday",
              "http://schema.org/Saturday",
              "http://schema.org/Sunday"
            ]
          }
        ],
        "provenance": "ville de Villeurbanne",
        "gid": 759
      }
    },
    {
      "type": "Feature",
      "id": "adr_voie_lieu.adrtoilettepublique_latest.760",
      "geometry": { "type": "Point", "coordinates": [4.895333, 45.664884] },
      "properties": {
        "adresse": "Rue Des Frères Lumière",
        "codinsee": "69273",
        "infoloc": "Proche angle avenue corbetta",
        "provenance": "Métropole de Lyon",
        "gid": 760
      }
    },
    {
      "type": "Feature",
      "id": "adr_voie_lieu.adrtoilettepublique_latest.761",
      "geometry": { "type": "Point", "coordinates": [4.824761, 45.720189] },
      "properties": {
        "adresse": "419  Avenue Jean Jaurès",
        "codinsee": "69387",
        "infoloc": "vers abeilles",
        "openinghoursspecification": [
          {
            "opens": "06:30",
            "closes": "22:30",
            "dayOfWeek": [
              "http://schema.org/Monday",
              "http://schema.org/Tuesday",
              "http://schema.org/Wednesday",
              "http://schema.org/Thursday",
              "http://schema.org/Friday",
              "http://schema.org/Saturday",
              "http://schema.org/Sunday"
            ]
          }
        ],
        "provenance": "ville de Lyon",
        "gid": 761
      }
    },
    {
      "type": "Feature",
      "id": "adr_voie_lieu.adrtoilettepublique_latest.763",
      "geometry": { "type": "Point", "coordinates": [4.761693, 45.73742] },
      "properties": {
        "adresse": "2 Rue De La Doulline",
        "codinsee": "69089",
        "infoloc": "Face place du repos",
        "provenance": "Métropole de Lyon",
        "gid": 763
      }
    },
    {
      "type": "Feature",
      "id": "adr_voie_lieu.adrtoilettepublique_latest.821",
      "geometry": { "type": "Point", "coordinates": [4.744294, 45.784786] },
      "properties": {
        "adresse": "Parking Du Cimetière",
        "codinsee": "69044",
        "acceshandi": false,
        "payant": false,
        "provenance": "ville de Charbonnières-les-Bains, Métropole de Lyon",
        "gid": 821
      }
    },
    {
      "type": "Feature",
      "id": "adr_voie_lieu.adrtoilettepublique_latest.1109",
      "geometry": { "type": "Point", "coordinates": [4.890796, 45.757464] },
      "properties": {
        "adresse": "Face Au 31 Avenue Général Leclerc",
        "codinsee": "69266",
        "acceshandi": true,
        "payant": true,
        "openinghoursspecification": [
          {
            "opens": "06:00",
            "closes": "22:00",
            "dayOfWeek": [
              "http://schema.org/Monday",
              "http://schema.org/Tuesday",
              "http://schema.org/Wednesday",
              "http://schema.org/Thursday",
              "http://schema.org/Friday",
              "http://schema.org/Saturday",
              "http://schema.org/Sunday"
            ]
          }
        ],
        "provenance": "ville de Villeurbanne",
        "gid": 1109
      }
    },
    {
      "type": "Feature",
      "id": "adr_voie_lieu.adrtoilettepublique_latest.1111",
      "geometry": { "type": "Point", "coordinates": [4.832325, 45.865936] },
      "properties": {
        "adresse": "Place Du Docteur Aloin",
        "codinsee": "69003",
        "infoloc": "Derrière église (place du docteur aloin) ",
        "acceshandi": true,
        "payant": true,
        "provenance": "Métropole de Lyon, Open Street Map",
        "gid": 1111
      }
    },
    {
      "type": "Feature",
      "id": "adr_voie_lieu.adrtoilettepublique_latest.1112",
      "geometry": { "type": "Point", "coordinates": [4.834622, 45.865821] },
      "properties": {
        "adresse": "Quai Général De Gaulle",
        "codinsee": "69003",
        "infoloc": "Halte fluviale",
        "provenance": "Métropole de Lyon, Open Street Map",
        "gid": 1112
      }
    },
    {
      "type": "Feature",
      "id": "adr_voie_lieu.adrtoilettepublique_latest.1113",
      "geometry": { "type": "Point", "coordinates": [4.831353, 45.865182] },
      "properties": {
        "adresse": "Rue Etienne Richerand",
        "codinsee": "69003",
        "infoloc": "Place du cédre",
        "acceshandi": true,
        "payant": true,
        "provenance": "Métropole de Lyon, Open Street Map",
        "gid": 1113
      }
    },
    {
      "type": "Feature",
      "id": "adr_voie_lieu.adrtoilettepublique_latest.1114",
      "geometry": { "type": "Point", "coordinates": [4.893033, 45.726752] },
      "properties": {
        "adresse": "15 Boulevard Emile Bollaert",
        "codinsee": "69029",
        "acceshandi": true,
        "payant": true,
        "provenance": "Open Street Map",
        "gid": 1114
      }
    },
    {
      "type": "Feature",
      "id": "adr_voie_lieu.adrtoilettepublique_latest.1115",
      "geometry": { "type": "Point", "coordinates": [4.91761, 45.720162] },
      "properties": {
        "adresse": "24 Impasse de l'Hippodrome",
        "codinsee": "69029",
        "provenance": "Open Street Map",
        "gid": 1115
      }
    },
    {
      "type": "Feature",
      "id": "adr_voie_lieu.adrtoilettepublique_latest.1116",
      "geometry": { "type": "Point", "coordinates": [4.919622, 45.732689] },
      "properties": {
        "adresse": "26B Avenue Maréchal de Lattre de Tassigny",
        "codinsee": "69029",
        "acceshandi": true,
        "unisexe": true,
        "provenance": "Open Street Map",
        "gid": 1116
      }
    },
    {
      "type": "Feature",
      "id": "adr_voie_lieu.adrtoilettepublique_latest.1117",
      "geometry": { "type": "Point", "coordinates": [4.903722, 45.747917] },
      "properties": {
        "adresse": "27 Avenue du Doyen Jean Lépine",
        "codinsee": "69029",
        "acceshandi": true,
        "payant": true,
        "provenance": "Open Street Map",
        "gid": 1117
      }
    },
    {
      "type": "Feature",
      "id": "adr_voie_lieu.adrtoilettepublique_latest.1118",
      "geometry": { "type": "Point", "coordinates": [4.909028, 45.748596] },
      "properties": {
        "adresse": "3 Place Général Jean Raby",
        "codinsee": "69029",
        "provenance": "Open Street Map",
        "gid": 1118
      }
    },
    {
      "type": "Feature",
      "id": "adr_voie_lieu.adrtoilettepublique_latest.1119",
      "geometry": { "type": "Point", "coordinates": [4.921036, 45.731458] },
      "properties": {
        "adresse": "315 Avenue Général de Gaulle",
        "codinsee": "69029",
        "provenance": "Open Street Map",
        "gid": 1119
      }
    },
    {
      "type": "Feature",
      "id": "adr_voie_lieu.adrtoilettepublique_latest.1120",
      "geometry": { "type": "Point", "coordinates": [4.895216, 45.732498] },
      "properties": {
        "adresse": "47 Rue des Essarts",
        "codinsee": "69029",
        "acceshandi": true,
        "payant": true,
        "provenance": "Open Street Map",
        "gid": 1120
      }
    },
    {
      "type": "Feature",
      "id": "adr_voie_lieu.adrtoilettepublique_latest.1121",
      "geometry": { "type": "Point", "coordinates": [4.917374, 45.721199] },
      "properties": {
        "adresse": "5B Avenue de l'Europe",
        "codinsee": "69029",
        "provenance": "Open Street Map",
        "gid": 1121
      }
    },
    {
      "type": "Feature",
      "id": "adr_voie_lieu.adrtoilettepublique_latest.1122",
      "geometry": { "type": "Point", "coordinates": [4.899928, 45.746525] },
      "properties": {
        "adresse": "67 Boulevard Pinel",
        "codinsee": "69029",
        "acceshandi": true,
        "payant": true,
        "provenance": "Open Street Map",
        "gid": 1122
      }
    },
    {
      "type": "Feature",
      "id": "adr_voie_lieu.adrtoilettepublique_latest.1123",
      "geometry": { "type": "Point", "coordinates": [4.929576, 45.725589] },
      "properties": {
        "adresse": "Avenue Jean Monnet",
        "codinsee": "69029",
        "acceshandi": true,
        "payant": true,
        "hommes": true,
        "femmes": true,
        "provenance": "Open Street Map",
        "gid": 1123
      }
    },
    {
      "type": "Feature",
      "id": "adr_voie_lieu.adrtoilettepublique_latest.1124",
      "geometry": { "type": "Point", "coordinates": [4.913475, 45.7239] },
      "properties": {
        "adresse": "Chemin du Furet",
        "codinsee": "69029",
        "provenance": "Open Street Map",
        "gid": 1124
      }
    },
    {
      "type": "Feature",
      "id": "adr_voie_lieu.adrtoilettepublique_latest.1125",
      "geometry": { "type": "Point", "coordinates": [4.917409, 45.737743] },
      "properties": {
        "adresse": "Place Curial",
        "codinsee": "69029",
        "infoloc": "Place Baptiste Curial",
        "unisexe": true,
        "openinghoursspecification": [
          {
            "opens": "06:00",
            "closes": "23:00",
            "dayOfWeek": [
              "http://schema.org/Monday",
              "http://schema.org/Tuesday",
              "http://schema.org/Wednesday",
              "http://schema.org/Thursday",
              "http://schema.org/Friday",
              "http://schema.org/Saturday",
              "http://schema.org/Sunday"
            ]
          }
        ],
        "provenance": "ville de Bron, Open Street Map",
        "gid": 1125
      }
    },
    {
      "type": "Feature",
      "id": "adr_voie_lieu.adrtoilettepublique_latest.1127",
      "geometry": { "type": "Point", "coordinates": [4.919626, 45.741912] },
      "properties": {
        "adresse": "Place Jean Moulin",
        "codinsee": "69029",
        "infoloc": "Place Jean Moulin",
        "payant": true,
        "openinghoursspecification": [
          {
            "opens": "06:00",
            "closes": "23:00",
            "dayOfWeek": [
              "http://schema.org/Monday",
              "http://schema.org/Tuesday",
              "http://schema.org/Wednesday",
              "http://schema.org/Thursday",
              "http://schema.org/Friday",
              "http://schema.org/Saturday",
              "http://schema.org/Sunday"
            ]
          }
        ],
        "provenance": "ville de Bron, Open Street Map",
        "gid": 1127
      }
    },
    {
      "type": "Feature",
      "id": "adr_voie_lieu.adrtoilettepublique_latest.1128",
      "geometry": { "type": "Point", "coordinates": [4.871599, 45.852197] },
      "properties": {
        "adresse": "Route Des Proliéres",
        "codinsee": "69033",
        "infoloc": "Face ecole",
        "acceshandi": true,
        "payant": true,
        "provenance": "Métropole de Lyon, Open Street Map",
        "gid": 1128
      }
    },
    {
      "type": "Feature",
      "id": "adr_voie_lieu.adrtoilettepublique_latest.1129",
      "geometry": { "type": "Point", "coordinates": [4.831846, 45.789764] },
      "properties": {
        "adresse": "6 Allée des Tamaris",
        "codinsee": "69034",
        "provenance": "Open Street Map",
        "gid": 1129
      }
    },
    {
      "type": "Feature",
      "id": "adr_voie_lieu.adrtoilettepublique_latest.1130",
      "geometry": { "type": "Point", "coordinates": [4.82799, 45.794668] },
      "properties": {
        "adresse": "Ancienne Écluse",
        "codinsee": "69034",
        "acceshandi": true,
        "payant": true,
        "provenance": "ville de Caluire-et-Cuire, Open Street Map",
        "gid": 1130
      }
    },
    {
      "type": "Feature",
      "id": "adr_voie_lieu.adrtoilettepublique_latest.1131",
      "geometry": { "type": "Point", "coordinates": [4.847297, 45.791485] },
      "properties": {
        "adresse": "Fort De Montessuy",
        "codinsee": "69034",
        "acceshandi": true,
        "payant": false,
        "hommes": true,
        "provenance": "ville de Caluire-et-Cuire, Open Street Map",
        "gid": 1131
      }
    },
    {
      "type": "Feature",
      "id": "adr_voie_lieu.adrtoilettepublique_latest.1132",
      "geometry": { "type": "Point", "coordinates": [4.847908, 45.799814] },
      "properties": {
        "adresse": "Place De L'eglise",
        "codinsee": "69034",
        "infoloc": "Angle rue jean moulin",
        "acceshandi": true,
        "payant": false,
        "hommes": true,
        "provenance": "ville de Caluire-et-Cuire, Métropole de Lyon, Open Street Map",
        "gid": 1132
      }
    },
    {
      "type": "Feature",
      "id": "adr_voie_lieu.adrtoilettepublique_latest.1133",
      "geometry": { "type": "Point", "coordinates": [4.823816, 45.791777] },
      "properties": {
        "adresse": "Place De La Rochette",
        "codinsee": "69034",
        "acceshandi": true,
        "payant": true,
        "unisexe": true,
        "provenance": "ville de Caluire-et-Cuire, Open Street Map",
        "gid": 1133
      }
    },
    {
      "type": "Feature",
      "id": "adr_voie_lieu.adrtoilettepublique_latest.1134",
      "geometry": { "type": "Point", "coordinates": [4.833015, 45.785789] },
      "properties": {
        "adresse": "Place Jules Ferry",
        "codinsee": "69034",
        "acceshandi": true,
        "payant": true,
        "unisexe": true,
        "provenance": "ville de Caluire-et-Cuire, Open Street Map",
        "gid": 1134
      }
    },
    {
      "type": "Feature",
      "id": "adr_voie_lieu.adrtoilettepublique_latest.1135",
      "geometry": { "type": "Point", "coordinates": [4.840767, 45.782971] },
      "properties": {
        "adresse": "Square Polnard",
        "codinsee": "69034",
        "infoloc": "Square polnard",
        "acceshandi": true,
        "payant": false,
        "unisexe": true,
        "provenance": "ville de Caluire-et-Cuire, Métropole de Lyon, Open Street Map",
        "gid": 1135
      }
    },
    {
      "type": "Feature",
      "id": "adr_voie_lieu.adrtoilettepublique_latest.1136",
      "geometry": { "type": "Point", "coordinates": [4.791949, 45.795121] },
      "properties": {
        "adresse": "3  Rue Jean-Marie Michel",
        "codinsee": "69040",
        "infoloc": "à côté de la Mairie annexe",
        "provenance": "ville de Champagne-au-Mont-d'Or, Open Street Map",
        "gid": 1136
      }
    },
    {
      "type": "Feature",
      "id": "adr_voie_lieu.adrtoilettepublique_latest.1137",
      "geometry": { "type": "Point", "coordinates": [4.784932, 45.793569] },
      "properties": {
        "adresse": "Rue Du Cimetière",
        "codinsee": "69040",
        "provenance": "ville de Champagne-au-Mont-d'Or, Métropole de Lyon, Open Street Map",
        "gid": 1137
      }
    },
    {
      "type": "Feature",
      "id": "adr_voie_lieu.adrtoilettepublique_latest.1138",
      "geometry": { "type": "Point", "coordinates": [4.739016, 45.781768] },
      "properties": {
        "adresse": "Avenue Lamartine",
        "codinsee": "69044",
        "acceshandi": true,
        "payant": false,
        "unisexe": true,
        "provenance": "ville de Charbonnières-les-Bains, Open Street Map",
        "gid": 1138
      }
    },
    {
      "type": "Feature",
      "id": "adr_voie_lieu.adrtoilettepublique_latest.1139",
      "geometry": { "type": "Point", "coordinates": [4.744034, 45.778492] },
      "properties": {
        "adresse": "Place Bad Abbach",
        "codinsee": "69044",
        "infoloc": "Derrière la mairie",
        "acceshandi": false,
        "payant": false,
        "provenance": "ville de Charbonnières-les-Bains, Métropole de Lyon, Open Street Map",
        "gid": 1139
      }
    },
    {
      "type": "Feature",
      "id": "adr_voie_lieu.adrtoilettepublique_latest.1140",
      "geometry": { "type": "Point", "coordinates": [4.841537, 45.817028] },
      "properties": {
        "adresse": "1 Rue César Paulet",
        "codinsee": "69063",
        "provenance": "Open Street Map",
        "gid": 1140
      }
    },
    {
      "type": "Feature",
      "id": "adr_voie_lieu.adrtoilettepublique_latest.1142",
      "geometry": { "type": "Point", "coordinates": [4.839839, 45.823424] },
      "properties": {
        "adresse": "2 Rue de la Mairie",
        "codinsee": "69063",
        "provenance": "Open Street Map",
        "gid": 1142
      }
    },
    {
      "type": "Feature",
      "id": "adr_voie_lieu.adrtoilettepublique_latest.1143",
      "geometry": { "type": "Point", "coordinates": [4.831906, 45.846496] },
      "properties": {
        "adresse": "Avenue Général De Gaulle",
        "codinsee": "69068",
        "infoloc": "Face au n°103",
        "acceshandi": true,
        "payant": true,
        "unisexe": true,
        "provenance": "Métropole de Lyon, Open Street Map",
        "gid": 1143
      }
    },
    {
      "type": "Feature",
      "id": "adr_voie_lieu.adrtoilettepublique_latest.1144",
      "geometry": { "type": "Point", "coordinates": [4.832558, 45.848815] },
      "properties": {
        "adresse": "Rue Gabrile Péri",
        "codinsee": "69068",
        "infoloc": "Parking face tennis",
        "acceshandi": true,
        "payant": true,
        "provenance": "Métropole de Lyon, Open Street Map",
        "gid": 1144
      }
    },
    {
      "type": "Feature",
      "id": "adr_voie_lieu.adrtoilettepublique_latest.1145",
      "geometry": { "type": "Point", "coordinates": [4.716559, 45.737892] },
      "properties": {
        "adresse": "813 Rue du 8 Mai 1945",
        "codinsee": "69069",
        "provenance": "Open Street Map",
        "gid": 1145
      }
    },
    {
      "type": "Feature",
      "id": "adr_voie_lieu.adrtoilettepublique_latest.1146",
      "geometry": { "type": "Point", "coordinates": [4.7238, 45.746602] },
      "properties": {
        "adresse": "Place Andrée-Marie Perrin",
        "codinsee": "69069",
        "acceshandi": true,
        "payant": true,
        "provenance": "Open Street Map",
        "gid": 1146
      }
    },
    {
      "type": "Feature",
      "id": "adr_voie_lieu.adrtoilettepublique_latest.1147",
      "geometry": { "type": "Point", "coordinates": [4.725118, 45.740358] },
      "properties": {
        "adresse": "Rue Du Cimetière",
        "codinsee": "69069",
        "infoloc": "Face entrée du cimetière",
        "acceshandi": true,
        "payant": true,
        "provenance": "Métropole de Lyon, Open Street Map",
        "gid": 1147
      }
    },
    {
      "type": "Feature",
      "id": "adr_voie_lieu.adrtoilettepublique_latest.1148",
      "geometry": { "type": "Point", "coordinates": [4.819975, 45.869705] },
      "properties": {
        "adresse": "Place De La Fontaine",
        "codinsee": "69071",
        "provenance": "Métropole de Lyon, Open Street Map",
        "gid": 1148
      }
    },
    {
      "type": "Feature",
      "id": "adr_voie_lieu.adrtoilettepublique_latest.1149",
      "geometry": { "type": "Point", "coordinates": [4.823463, 45.873426] },
      "properties": {
        "adresse": "Rue Du Pontet",
        "codinsee": "69071",
        "infoloc": "A l interieur du stade",
        "provenance": "Métropole de Lyon, Open Street Map",
        "gid": 1149
      }
    },
    {
      "type": "Feature",
      "id": "adr_voie_lieu.adrtoilettepublique_latest.1150",
      "geometry": { "type": "Point", "coordinates": [4.753835, 45.80541] },
      "properties": {
        "adresse": "13  Rue De La Mairie ",
        "codinsee": "69072",
        "infoloc": "Place de l'Eglise, sous le porche ",
        "acceshandi": true,
        "payant": false,
        "provenance": "ville de Dardilly, Métropole de Lyon, Open Street Map",
        "gid": 1150
      }
    },
    {
      "type": "Feature",
      "id": "adr_voie_lieu.adrtoilettepublique_latest.1151",
      "geometry": { "type": "Point", "coordinates": [4.750244, 45.819121] },
      "properties": {
        "adresse": "23  Chemin De La Pierre Blanche",
        "codinsee": "69072",
        "infoloc": "Sur le parking du Barriot",
        "acceshandi": true,
        "payant": false,
        "provenance": "ville de Dardilly, Métropole de Lyon, Open Street Map",
        "gid": 1151
      }
    },
    {
      "type": "Feature",
      "id": "adr_voie_lieu.adrtoilettepublique_latest.1152",
      "geometry": { "type": "Point", "coordinates": [4.751415, 45.809746] },
      "properties": {
        "adresse": "38  Avenue De Verdun",
        "codinsee": "69072",
        "infoloc": "Proche cimetière",
        "acceshandi": true,
        "payant": false,
        "provenance": "ville de Dardilly, Métropole de Lyon, Open Street Map",
        "gid": 1152
      }
    },
    {
      "type": "Feature",
      "id": "adr_voie_lieu.adrtoilettepublique_latest.1153",
      "geometry": { "type": "Point", "coordinates": [4.761094, 45.820312] },
      "properties": {
        "adresse": "Place De La Porte De Lyon",
        "codinsee": "69072",
        "infoloc": "Sur le parking ",
        "acceshandi": true,
        "payant": false,
        "provenance": "ville de Dardilly, Métropole de Lyon, Open Street Map",
        "gid": 1153
      }
    },
    {
      "type": "Feature",
      "id": "adr_voie_lieu.adrtoilettepublique_latest.1154",
      "geometry": { "type": "Point", "coordinates": [4.775191, 45.789806] },
      "properties": {
        "adresse": "10 Allée de la Crétaz",
        "codinsee": "69081",
        "provenance": "Open Street Map",
        "gid": 1154
      }
    },
    {
      "type": "Feature",
      "id": "adr_voie_lieu.adrtoilettepublique_latest.1155",
      "geometry": { "type": "Point", "coordinates": [4.772298, 45.774301] },
      "properties": {
        "adresse": "15 Chemin du Trouillat",
        "codinsee": "69081",
        "provenance": "Open Street Map",
        "gid": 1155
      }
    },
    {
      "type": "Feature",
      "id": "adr_voie_lieu.adrtoilettepublique_latest.1156",
      "geometry": { "type": "Point", "coordinates": [4.767866, 45.775709] },
      "properties": {
        "adresse": "28  Chemin Du Trouillat",
        "codinsee": "69081",
        "infoloc": "Dans le parc (suivre indications)",
        "acceshandi": true,
        "payant": false,
        "provenance": "ville de Écully, Open Street Map",
        "gid": 1156
      }
    },
    {
      "type": "Feature",
      "id": "adr_voie_lieu.adrtoilettepublique_latest.1157",
      "geometry": { "type": "Point", "coordinates": [4.773388, 45.768813] },
      "properties": {
        "adresse": "4  Bis Rue Pierre Baronnier",
        "codinsee": "69081",
        "infoloc": "Vers le parking",
        "acceshandi": true,
        "payant": false,
        "provenance": "ville de Écully, Métropole de Lyon, Open Street Map",
        "gid": 1157
      }
    },
    {
      "type": "Feature",
      "id": "adr_voie_lieu.adrtoilettepublique_latest.1158",
      "geometry": { "type": "Point", "coordinates": [4.778432, 45.774742] },
      "properties": {
        "adresse": "Place Charles De Gaulle",
        "codinsee": "69081",
        "infoloc": "Sur le trottoir coté Eglise",
        "acceshandi": true,
        "payant": false,
        "provenance": "ville de Écully, Métropole de Lyon, Open Street Map",
        "gid": 1158
      }
    },
    {
      "type": "Feature",
      "id": "adr_voie_lieu.adrtoilettepublique_latest.1159",
      "geometry": { "type": "Point", "coordinates": [4.782145, 45.774109] },
      "properties": {
        "adresse": "Rue Tramier",
        "codinsee": "69081",
        "infoloc": "Sur le parking",
        "acceshandi": true,
        "payant": false,
        "provenance": "ville de Écully, Métropole de Lyon, Open Street Map",
        "gid": 1159
      }
    },
    {
      "type": "Feature",
      "id": "adr_voie_lieu.adrtoilettepublique_latest.1160",
      "geometry": { "type": "Point", "coordinates": [4.845584, 45.863192] },
      "properties": {
        "adresse": "Place De La Mairie",
        "codinsee": "69085",
        "acceshandi": true,
        "payant": true,
        "provenance": "Métropole de Lyon, Open Street Map",
        "gid": 1160
      }
    },
    {
      "type": "Feature",
      "id": "adr_voie_lieu.adrtoilettepublique_latest.1161",
      "geometry": { "type": "Point", "coordinates": [4.853522, 45.844937] },
      "properties": {
        "adresse": "50 Rue Gentil",
        "codinsee": "69087",
        "infoloc": "Derriere l eglise",
        "acceshandi": true,
        "payant": true,
        "provenance": "Métropole de Lyon, Open Street Map",
        "gid": 1161
      }
    },
    {
      "type": "Feature",
      "id": "adr_voie_lieu.adrtoilettepublique_latest.1162",
      "geometry": { "type": "Point", "coordinates": [4.86285, 45.821577] },
      "properties": {
        "adresse": "21 Rue Ampère",
        "codinsee": "69088",
        "acceshandi": true,
        "provenance": "Open Street Map",
        "gid": 1162
      }
    },
    {
      "type": "Feature",
      "id": "adr_voie_lieu.adrtoilettepublique_latest.1163",
      "geometry": { "type": "Point", "coordinates": [4.863124, 45.815872] },
      "properties": {
        "adresse": "Place des Marronniers",
        "codinsee": "69088",
        "acceshandi": true,
        "payant": true,
        "provenance": "Open Street Map",
        "gid": 1163
      }
    },
    {
      "type": "Feature",
      "id": "adr_voie_lieu.adrtoilettepublique_latest.1164",
      "geometry": { "type": "Point", "coordinates": [4.756254, 45.747086] },
      "properties": {
        "adresse": "2 Rue De La Chapelle De Bel Air",
        "codinsee": "69089",
        "acceshandi": true,
        "payant": true,
        "provenance": "Métropole de Lyon, Open Street Map",
        "gid": 1164
      }
    },
    {
      "type": "Feature",
      "id": "adr_voie_lieu.adrtoilettepublique_latest.1165",
      "geometry": { "type": "Point", "coordinates": [4.773826, 45.738055] },
      "properties": {
        "adresse": "Chemin De Chantegrillet",
        "codinsee": "69089",
        "infoloc": "Chemin de chantegrillet - parc du grillon",
        "acceshandi": true,
        "payant": true,
        "unisexe": true,
        "provenance": "Métropole de Lyon, Open Street Map",
        "gid": 1165
      }
    },
    {
      "type": "Feature",
      "id": "adr_voie_lieu.adrtoilettepublique_latest.1166",
      "geometry": { "type": "Point", "coordinates": [4.76404, 45.736086] },
      "properties": {
        "adresse": "Place De L'hôtel De Ville",
        "codinsee": "69089",
        "acceshandi": true,
        "payant": true,
        "provenance": "Métropole de Lyon, Open Street Map",
        "gid": 1166
      }
    },
    {
      "type": "Feature",
      "id": "adr_voie_lieu.adrtoilettepublique_latest.1167",
      "geometry": { "type": "Point", "coordinates": [4.772106, 45.586577] },
      "properties": {
        "adresse": "1  Quai Georges Lévy",
        "codinsee": "69091",
        "infoloc": "Dans le parc Normandie-Niemen, en entrant par l’entrée donnant sur le rond-point",
        "acceshandi": false,
        "payant": false,
        "provenance": "ville de Givors, Métropole de Lyon, Open Street Map",
        "gid": 1167
      }
    },
    {
      "type": "Feature",
      "id": "adr_voie_lieu.adrtoilettepublique_latest.1168",
      "geometry": { "type": "Point", "coordinates": [4.770413, 45.59458] },
      "properties": {
        "adresse": "2  Avenue Du 11 Novembre 1918",
        "codinsee": "69091",
        "infoloc": "En face de la station service",
        "acceshandi": false,
        "payant": false,
        "provenance": "ville de Givors, Métropole de Lyon, Open Street Map",
        "gid": 1168
      }
    },
    {
      "type": "Feature",
      "id": "adr_voie_lieu.adrtoilettepublique_latest.1169",
      "geometry": { "type": "Point", "coordinates": [4.770979, 45.589774] },
      "properties": {
        "adresse": "20  Rue Victor Hugo",
        "codinsee": "69091",
        "infoloc": "Dans le square Colonel Fabien, au niveau de l’accès sud du pont enjambant l’autoroute A47",
        "acceshandi": false,
        "payant": false,
        "provenance": "ville de Givors, Métropole de Lyon, Open Street Map",
        "gid": 1169
      }
    },
    {
      "type": "Feature",
      "id": "adr_voie_lieu.adrtoilettepublique_latest.1170",
      "geometry": { "type": "Point", "coordinates": [4.768794, 45.597911] },
      "properties": {
        "adresse": "29  Rue Pierre Et Marie Curie",
        "codinsee": "69091",
        "infoloc": "A l’angle des rue de la Cité Ambroise Croizat et de la Rue Pierre et Marie Curie",
        "acceshandi": false,
        "payant": false,
        "provenance": "ville de Givors, Métropole de Lyon, Open Street Map",
        "gid": 1170
      }
    },
    {
      "type": "Feature",
      "id": "adr_voie_lieu.adrtoilettepublique_latest.1171",
      "geometry": { "type": "Point", "coordinates": [4.767707, 45.597063] },
      "properties": {
        "adresse": "3  Cité Ambroise Croizat",
        "codinsee": "69091",
        "infoloc": "Dans la cité Ambroise Croizat, devant le bâtiment n°3, à coté du transformateur électrique face au parc.",
        "acceshandi": false,
        "payant": false,
        "provenance": "ville de Givors, Métropole de Lyon, Open Street Map",
        "gid": 1171
      }
    },
    {
      "type": "Feature",
      "id": "adr_voie_lieu.adrtoilettepublique_latest.1172",
      "geometry": { "type": "Point", "coordinates": [4.772676, 45.587166] },
      "properties": {
        "adresse": "3  Quai Des Martyrs Du 8 Février 1962",
        "codinsee": "69091",
        "infoloc": "Sur le bord du quai, entre les deux immeubles",
        "acceshandi": false,
        "payant": false,
        "provenance": "ville de Givors, Métropole de Lyon, Open Street Map",
        "gid": 1172
      }
    },
    {
      "type": "Feature",
      "id": "adr_voie_lieu.adrtoilettepublique_latest.1173",
      "geometry": { "type": "Point", "coordinates": [4.76087, 45.5878] },
      "properties": {
        "adresse": "62  Rue Du Moulin",
        "codinsee": "69091",
        "infoloc": "Sous les arbres sur le bord du Gier, à proximité du rond-point",
        "acceshandi": true,
        "payant": false,
        "provenance": "ville de Givors, Métropole de Lyon, Open Street Map",
        "gid": 1173
      }
    },
    {
      "type": "Feature",
      "id": "adr_voie_lieu.adrtoilettepublique_latest.1174",
      "geometry": { "type": "Point", "coordinates": [4.765746, 45.584967] },
      "properties": {
        "adresse": "Esplanade Antoine De Saint-Exupéry",
        "codinsee": "69091",
        "infoloc": "Sur le bord du quai D, au niveau de l’escalier sous les voies",
        "acceshandi": true,
        "payant": false,
        "provenance": "ville de Givors, Open Street Map",
        "gid": 1174
      }
    },
    {
      "type": "Feature",
      "id": "adr_voie_lieu.adrtoilettepublique_latest.1175",
      "geometry": { "type": "Point", "coordinates": [4.80045, 45.61401] },
      "properties": {
        "adresse": "49 Allée de la Clairière",
        "codinsee": "69096",
        "provenance": "Open Street Map",
        "gid": 1175
      }
    },
    {
      "type": "Feature",
      "id": "adr_voie_lieu.adrtoilettepublique_latest.1176",
      "geometry": { "type": "Point", "coordinates": [4.799303, 45.612071] },
      "properties": {
        "adresse": "8bis Rue Fleury Jay",
        "codinsee": "69096",
        "payant": true,
        "unisexe": true,
        "provenance": "Open Street Map",
        "gid": 1176
      }
    },
    {
      "type": "Feature",
      "id": "adr_voie_lieu.adrtoilettepublique_latest.1177",
      "geometry": { "type": "Point", "coordinates": [4.780629, 45.604942] },
      "properties": {
        "adresse": "Avenue Du 19 Mars 1962",
        "codinsee": "69096",
        "infoloc": "Angle rue pasteur - côté intermarché",
        "provenance": "Métropole de Lyon, Open Street Map",
        "gid": 1177
      }
    },
    {
      "type": "Feature",
      "id": "adr_voie_lieu.adrtoilettepublique_latest.1178",
      "geometry": { "type": "Point", "coordinates": [4.822356, 45.672635] },
      "properties": {
        "adresse": "1 Place de l'Europe",
        "codinsee": "69100",
        "provenance": "Open Street Map",
        "gid": 1178
      }
    },
    {
      "type": "Feature",
      "id": "adr_voie_lieu.adrtoilettepublique_latest.1179",
      "geometry": { "type": "Point", "coordinates": [4.818219, 45.674326] },
      "properties": {
        "adresse": "16 Rue De Taillepied",
        "codinsee": "69100",
        "infoloc": "Façe n° 16 (ancien cimetière).",
        "provenance": "Métropole de Lyon, Open Street Map",
        "gid": 1179
      }
    },
    {
      "type": "Feature",
      "id": "adr_voie_lieu.adrtoilettepublique_latest.1180",
      "geometry": { "type": "Point", "coordinates": [4.815319, 45.680937] },
      "properties": {
        "adresse": "Chemin De Presles",
        "codinsee": "69100",
        "infoloc": "Intérieur du nouveau cimetière",
        "provenance": "Métropole de Lyon, Open Street Map",
        "gid": 1180
      }
    },
    {
      "type": "Feature",
      "id": "adr_voie_lieu.adrtoilettepublique_latest.1181",
      "geometry": { "type": "Point", "coordinates": [4.772514, 45.835809] },
      "properties": {
        "adresse": "Place Decurel",
        "codinsee": "69116",
        "provenance": "Métropole de Lyon, Open Street Map",
        "gid": 1181
      }
    },
    {
      "type": "Feature",
      "id": "adr_voie_lieu.adrtoilettepublique_latest.1182",
      "geometry": { "type": "Point", "coordinates": [4.704986, 45.781105] },
      "properties": {
        "adresse": "15 Allée Louis Raymond",
        "codinsee": "69127",
        "provenance": "Métropole de Lyon, Open Street Map",
        "gid": 1182
      }
    },
    {
      "type": "Feature",
      "id": "adr_voie_lieu.adrtoilettepublique_latest.1183",
      "geometry": { "type": "Point", "coordinates": [4.708206, 45.782843] },
      "properties": {
        "adresse": "Allée Des Ecoles",
        "codinsee": "69127",
        "infoloc": "Parking en face de l'école",
        "acceshandi": true,
        "provenance": "Métropole de Lyon, Open Street Map",
        "gid": 1183
      }
    },
    {
      "type": "Feature",
      "id": "adr_voie_lieu.adrtoilettepublique_latest.1184",
      "geometry": { "type": "Point", "coordinates": [4.72948, 45.786215] },
      "properties": {
        "adresse": "Avenue de Lacroix-Laval",
        "codinsee": "69127",
        "acceshandi": true,
        "payant": true,
        "provenance": "Open Street Map",
        "gid": 1184
      }
    },
    {
      "type": "Feature",
      "id": "adr_voie_lieu.adrtoilettepublique_latest.1185",
      "geometry": { "type": "Point", "coordinates": [4.81632, 45.726797] },
      "properties": {
        "adresse": "3 Place Général Leclerc",
        "codinsee": "69142",
        "acceshandi": true,
        "payant": true,
        "provenance": "Open Street Map",
        "gid": 1185
      }
    },
    {
      "type": "Feature",
      "id": "adr_voie_lieu.adrtoilettepublique_latest.1186",
      "geometry": { "type": "Point", "coordinates": [4.809709, 45.728953] },
      "properties": {
        "adresse": "Rue De Verdun",
        "codinsee": "69142",
        "infoloc": "Angle rue maréchal de lattre de tassigny",
        "acceshandi": true,
        "payant": true,
        "provenance": "Métropole de Lyon, Open Street Map",
        "gid": 1186
      }
    },
    {
      "type": "Feature",
      "id": "adr_voie_lieu.adrtoilettepublique_latest.1187",
      "geometry": { "type": "Point", "coordinates": [4.838143, 45.876852] },
      "properties": {
        "adresse": "3  Quai Pasteur",
        "codinsee": "69143",
        "infoloc": "Vers pont de neuville",
        "acceshandi": true,
        "payant": false,
        "unisexe": true,
        "provenance": "ville de Neuville-sur-Saône, Métropole de Lyon, Open Street Map",
        "gid": 1187
      }
    },
    {
      "type": "Feature",
      "id": "adr_voie_lieu.adrtoilettepublique_latest.1188",
      "geometry": { "type": "Point", "coordinates": [4.836576, 45.879749] },
      "properties": {
        "adresse": "Avenue Jean Christophe",
        "codinsee": "69143",
        "infoloc": "Vers pont",
        "acceshandi": true,
        "payant": true,
        "provenance": "Métropole de Lyon, Open Street Map",
        "gid": 1188
      }
    },
    {
      "type": "Feature",
      "id": "adr_voie_lieu.adrtoilettepublique_latest.1189",
      "geometry": { "type": "Point", "coordinates": [4.839841, 45.877448] },
      "properties": {
        "adresse": "Place Du 8 Mai 1945",
        "codinsee": "69143",
        "acceshandi": true,
        "payant": false,
        "provenance": "ville de Neuville-sur-Saône, Open Street Map",
        "gid": 1189
      }
    },
    {
      "type": "Feature",
      "id": "adr_voie_lieu.adrtoilettepublique_latest.1190",
      "geometry": { "type": "Point", "coordinates": [4.841808, 45.875113] },
      "properties": {
        "adresse": "Place des Anciens Combattants d'Afrique du Nord",
        "codinsee": "69143",
        "provenance": "Open Street Map",
        "gid": 1190
      }
    },
    {
      "type": "Feature",
      "id": "adr_voie_lieu.adrtoilettepublique_latest.1191",
      "geometry": { "type": "Point", "coordinates": [4.806987, 45.713799] },
      "properties": {
        "adresse": "1 Rue Etienne Dolet",
        "codinsee": "69149",
        "acceshandi": true,
        "payant": true,
        "provenance": "Open Street Map",
        "gid": 1191
      }
    },
    {
      "type": "Feature",
      "id": "adr_voie_lieu.adrtoilettepublique_latest.1192",
      "geometry": { "type": "Point", "coordinates": [4.800392, 45.718835] },
      "properties": {
        "adresse": "12 Rue Berthelot",
        "codinsee": "69149",
        "acceshandi": true,
        "payant": true,
        "unisexe": true,
        "provenance": "Open Street Map",
        "gid": 1192
      }
    },
    {
      "type": "Feature",
      "id": "adr_voie_lieu.adrtoilettepublique_latest.1193",
      "geometry": { "type": "Point", "coordinates": [4.803635, 45.721993] },
      "properties": {
        "adresse": "13 Rue Fernand Forest",
        "codinsee": "69149",
        "provenance": "Open Street Map",
        "gid": 1193
      }
    },
    {
      "type": "Feature",
      "id": "adr_voie_lieu.adrtoilettepublique_latest.1194",
      "geometry": { "type": "Point", "coordinates": [4.806531, 45.712955] },
      "properties": {
        "adresse": "17bis Rue du Perron",
        "codinsee": "69149",
        "acceshandi": true,
        "payant": true,
        "provenance": "Open Street Map",
        "gid": 1194
      }
    },
    {
      "type": "Feature",
      "id": "adr_voie_lieu.adrtoilettepublique_latest.1195",
      "geometry": { "type": "Point", "coordinates": [4.805205, 45.714985] },
      "properties": {
        "adresse": "4 Place Anatole France",
        "codinsee": "69149",
        "provenance": "Open Street Map",
        "gid": 1195
      }
    },
    {
      "type": "Feature",
      "id": "adr_voie_lieu.adrtoilettepublique_latest.1196",
      "geometry": { "type": "Point", "coordinates": [4.807817, 45.711294] },
      "properties": {
        "adresse": "57 Rue du Perron",
        "codinsee": "69149",
        "provenance": "Open Street Map",
        "gid": 1196
      }
    },
    {
      "type": "Feature",
      "id": "adr_voie_lieu.adrtoilettepublique_latest.1197",
      "geometry": { "type": "Point", "coordinates": [4.808325, 45.711268] },
      "properties": {
        "adresse": "61 Rue du Perron",
        "codinsee": "69149",
        "provenance": "Open Street Map",
        "gid": 1197
      }
    },
    {
      "type": "Feature",
      "id": "adr_voie_lieu.adrtoilettepublique_latest.1198",
      "geometry": { "type": "Point", "coordinates": [4.81792, 45.718233] },
      "properties": {
        "adresse": "95 Square Jean Jaurès",
        "codinsee": "69149",
        "infoloc": "Rue pierre sémard - face n° 95",
        "acceshandi": true,
        "payant": true,
        "provenance": "Métropole de Lyon, Open Street Map",
        "gid": 1198
      }
    },
    {
      "type": "Feature",
      "id": "adr_voie_lieu.adrtoilettepublique_latest.1199",
      "geometry": { "type": "Point", "coordinates": [4.812428, 45.717314] },
      "properties": {
        "adresse": "Rue Pierre Sémard",
        "codinsee": "69149",
        "infoloc": "Angle rue aulagne",
        "acceshandi": true,
        "payant": true,
        "hommes": true,
        "provenance": "Métropole de Lyon, Open Street Map",
        "gid": 1199
      }
    },
    {
      "type": "Feature",
      "id": "adr_voie_lieu.adrtoilettepublique_latest.1200",
      "geometry": { "type": "Point", "coordinates": [4.80923, 45.710466] },
      "properties": {
        "adresse": "Rue du Perron",
        "codinsee": "69149",
        "provenance": "Open Street Map",
        "gid": 1200
      }
    },
    {
      "type": "Feature",
      "id": "adr_voie_lieu.adrtoilettepublique_latest.1201",
      "geometry": { "type": "Point", "coordinates": [4.819063, 45.702827] },
      "properties": {
        "adresse": "107  Rue Ampère",
        "codinsee": "69152",
        "infoloc": "Accès possible vers l'église",
        "acceshandi": true,
        "payant": false,
        "provenance": "ville de Pierre-Bénite, Métropole de Lyon, Open Street Map",
        "gid": 1201
      }
    },
    {
      "type": "Feature",
      "id": "adr_voie_lieu.adrtoilettepublique_latest.1202",
      "geometry": { "type": "Point", "coordinates": [4.8115, 45.706195] },
      "properties": {
        "adresse": "6  Chemin Du Grand Perron",
        "codinsee": "69152",
        "infoloc": "Angle chemin de montmein (cimetière)",
        "payant": false,
        "provenance": "ville de Pierre-Bénite, Métropole de Lyon, Open Street Map",
        "gid": 1202
      }
    },
    {
      "type": "Feature",
      "id": "adr_voie_lieu.adrtoilettepublique_latest.1203",
      "geometry": { "type": "Point", "coordinates": [4.821406, 45.707172] },
      "properties": {
        "adresse": "Boulevard De L'europe",
        "codinsee": "69152",
        "infoloc": "Face rue vaillant couturier - square claude beaumont\r\n\r\nface au n° 16 bl de",
        "payant": false,
        "provenance": "ville de Pierre-Bénite, Métropole de Lyon, Open Street Map",
        "gid": 1203
      }
    },
    {
      "type": "Feature",
      "id": "adr_voie_lieu.adrtoilettepublique_latest.1204",
      "geometry": { "type": "Point", "coordinates": [4.826432, 45.703678] },
      "properties": {
        "adresse": "Place De La Paix",
        "codinsee": "69152",
        "infoloc": "Proximité Mairie",
        "acceshandi": true,
        "payant": false,
        "provenance": "ville de Pierre-Bénite, Métropole de Lyon, Open Street Map",
        "gid": 1204
      }
    },
    {
      "type": "Feature",
      "id": "adr_voie_lieu.adrtoilettepublique_latest.1205",
      "geometry": { "type": "Point", "coordinates": [4.823858, 45.70356] },
      "properties": {
        "adresse": "Place Jean Jaurès",
        "codinsee": "69152",
        "infoloc": "Vers portail services techniques",
        "acceshandi": true,
        "payant": false,
        "provenance": "ville de Pierre-Bénite, Métropole de Lyon, Open Street Map",
        "gid": 1205
      }
    },
    {
      "type": "Feature",
      "id": "adr_voie_lieu.adrtoilettepublique_latest.1206",
      "geometry": { "type": "Point", "coordinates": [4.800145, 45.856187] },
      "properties": {
        "adresse": "Place De La Mairie",
        "codinsee": "69153",
        "provenance": "Métropole de Lyon, Open Street Map",
        "gid": 1206
      }
    },
    {
      "type": "Feature",
      "id": "adr_voie_lieu.adrtoilettepublique_latest.1207",
      "geometry": { "type": "Point", "coordinates": [4.77872, 45.914564] },
      "properties": {
        "adresse": "30 Rue de la république",
        "codinsee": "69163",
        "acceshandi": true,
        "unisexe": true,
        "provenance": "Open Street Map",
        "gid": 1207
      }
    },
    {
      "type": "Feature",
      "id": "adr_voie_lieu.adrtoilettepublique_latest.1208",
      "geometry": { "type": "Point", "coordinates": [4.772599, 45.935001] },
      "properties": {
        "adresse": "339 Chemin de Chamalan",
        "codinsee": "69163",
        "payant": true,
        "unisexe": true,
        "provenance": "Open Street Map",
        "gid": 1208
      }
    },
    {
      "type": "Feature",
      "id": "adr_voie_lieu.adrtoilettepublique_latest.1209",
      "geometry": { "type": "Point", "coordinates": [4.837038, 45.844304] },
      "properties": {
        "adresse": "600 Rue du Musée",
        "codinsee": "69168",
        "acceshandi": true,
        "payant": true,
        "provenance": "Open Street Map",
        "gid": 1209
      }
    },
    {
      "type": "Feature",
      "id": "adr_voie_lieu.adrtoilettepublique_latest.1210",
      "geometry": { "type": "Point", "coordinates": [4.820063, 45.822999] },
      "properties": {
        "adresse": "Esplanade Du Mont Cindre",
        "codinsee": "69191",
        "infoloc": "A proximité de la Tour Relai",
        "provenance": "ville de Saint-Cyr-au-Mont-d'Or, Métropole de Lyon, Open Street Map",
        "gid": 1210
      }
    },
    {
      "type": "Feature",
      "id": "adr_voie_lieu.adrtoilettepublique_latest.1211",
      "geometry": { "type": "Point", "coordinates": [4.819299, 45.814304] },
      "properties": {
        "adresse": "Place De La République",
        "codinsee": "69191",
        "infoloc": "A proximité de l'arrêt de bus",
        "acceshandi": true,
        "payant": true,
        "provenance": "ville de Saint-Cyr-au-Mont-d'Or, Métropole de Lyon, Open Street Map",
        "gid": 1211
      }
    },
    {
      "type": "Feature",
      "id": "adr_voie_lieu.adrtoilettepublique_latest.1212",
      "geometry": { "type": "Point", "coordinates": [4.813527, 45.81048] },
      "properties": {
        "adresse": "Rue Du Cimetière",
        "codinsee": "69191",
        "infoloc": "En face du Cimetière",
        "payant": true,
        "provenance": "ville de Saint-Cyr-au-Mont-d'Or, Métropole de Lyon, Open Street Map",
        "gid": 1212
      }
    },
    {
      "type": "Feature",
      "id": "adr_voie_lieu.adrtoilettepublique_latest.1213",
      "geometry": { "type": "Point", "coordinates": [4.799134, 45.809993] },
      "properties": {
        "adresse": "Place Abbé Boursier",
        "codinsee": "69194",
        "infoloc": "Derrière l'église, sous le parking Pradel",
        "provenance": "ville de Saint-Didier-au-Mont-d’Or, Métropole de Lyon, Open Street Map",
        "gid": 1213
      }
    },
    {
      "type": "Feature",
      "id": "adr_voie_lieu.adrtoilettepublique_latest.1214",
      "geometry": { "type": "Point", "coordinates": [4.798187, 45.807726] },
      "properties": {
        "adresse": "Rue Commandant Israel",
        "codinsee": "69194",
        "infoloc": "Devant entree cimetiere",
        "provenance": "Métropole de Lyon, Open Street Map",
        "gid": 1214
      }
    },
    {
      "type": "Feature",
      "id": "adr_voie_lieu.adrtoilettepublique_latest.1215",
      "geometry": { "type": "Point", "coordinates": [4.862383, 45.703652] },
      "properties": {
        "adresse": "22 Avenue Antoine Gravallon",
        "codinsee": "69199",
        "provenance": "Open Street Map",
        "gid": 1215
      }
    },
    {
      "type": "Feature",
      "id": "adr_voie_lieu.adrtoilettepublique_latest.1216",
      "geometry": { "type": "Point", "coordinates": [4.862741, 45.70269] },
      "properties": {
        "adresse": "Avenue Antoine Gravallon",
        "codinsee": "69199",
        "infoloc": "Proche angle rue du docteur louis jugnet",
        "provenance": "Métropole de Lyon, Open Street Map",
        "gid": 1216
      }
    },
    {
      "type": "Feature",
      "id": "adr_voie_lieu.adrtoilettepublique_latest.1217",
      "geometry": { "type": "Point", "coordinates": [4.856863, 45.698955] },
      "properties": {
        "adresse": "Rue De Bellevue",
        "codinsee": "69199",
        "infoloc": "Proche cimetières des clochettes\r\nyves farges",
        "provenance": "Métropole de Lyon, Open Street Map",
        "gid": 1217
      }
    },
    {
      "type": "Feature",
      "id": "adr_voie_lieu.adrtoilettepublique_latest.1218",
      "geometry": { "type": "Point", "coordinates": [4.861061, 45.712811] },
      "properties": {
        "adresse": "Rue Montesquieu",
        "codinsee": "69199",
        "provenance": "Métropole de Lyon, Open Street Map",
        "gid": 1218
      }
    },
    {
      "type": "Feature",
      "id": "adr_voie_lieu.adrtoilettepublique_latest.1219",
      "geometry": { "type": "Point", "coordinates": [4.804746, 45.735809] },
      "properties": {
        "adresse": "10 Boulevard Baron Du Marais",
        "codinsee": "69202",
        "provenance": "Métropole de Lyon, Open Street Map",
        "gid": 1219
      }
    },
    {
      "type": "Feature",
      "id": "adr_voie_lieu.adrtoilettepublique_latest.1220",
      "geometry": { "type": "Point", "coordinates": [4.785364, 45.735304] },
      "properties": {
        "adresse": "2 Rue Léon Granier",
        "codinsee": "69202",
        "provenance": "Open Street Map",
        "gid": 1220
      }
    },
    {
      "type": "Feature",
      "id": "adr_voie_lieu.adrtoilettepublique_latest.1221",
      "geometry": { "type": "Point", "coordinates": [4.795908, 45.736185] },
      "properties": {
        "adresse": "33 Avenue du 11 Novembre",
        "codinsee": "69202",
        "provenance": "Open Street Map",
        "gid": 1221
      }
    },
    {
      "type": "Feature",
      "id": "adr_voie_lieu.adrtoilettepublique_latest.1222",
      "geometry": { "type": "Point", "coordinates": [4.797289, 45.733485] },
      "properties": {
        "adresse": "34 Chemin de Montray",
        "codinsee": "69202",
        "payant": true,
        "provenance": "Open Street Map",
        "gid": 1222
      }
    },
    {
      "type": "Feature",
      "id": "adr_voie_lieu.adrtoilettepublique_latest.1223",
      "geometry": { "type": "Point", "coordinates": [4.77885, 45.725382] },
      "properties": {
        "adresse": "93 Place Henri Révy",
        "codinsee": "69202",
        "infoloc": "Route de la libération - face n° 93 ",
        "provenance": "Métropole de Lyon, Open Street Map",
        "gid": 1223
      }
    },
    {
      "type": "Feature",
      "id": "adr_voie_lieu.adrtoilettepublique_latest.1224",
      "geometry": { "type": "Point", "coordinates": [4.802771, 45.742102] },
      "properties": {
        "adresse": "Lieudit Le Fort",
        "codinsee": "69202",
        "payant": true,
        "provenance": "Open Street Map",
        "gid": 1224
      }
    },
    {
      "type": "Feature",
      "id": "adr_voie_lieu.adrtoilettepublique_latest.1225",
      "geometry": { "type": "Point", "coordinates": [4.789831, 45.746148] },
      "properties": {
        "adresse": "Place Laurent Paul",
        "codinsee": "69202",
        "infoloc": "Angle rue laurent paul",
        "acceshandi": true,
        "payant": true,
        "hommes": true,
        "provenance": "Métropole de Lyon, Open Street Map",
        "gid": 1225
      }
    },
    {
      "type": "Feature",
      "id": "adr_voie_lieu.adrtoilettepublique_latest.1226",
      "geometry": { "type": "Point", "coordinates": [4.800441, 45.747794] },
      "properties": {
        "adresse": "Place Lieutenant Soubeirat",
        "codinsee": "69202",
        "acceshandi": true,
        "unisexe": true,
        "provenance": "Open Street Map",
        "gid": 1226
      }
    },
    {
      "type": "Feature",
      "id": "adr_voie_lieu.adrtoilettepublique_latest.1227",
      "geometry": { "type": "Point", "coordinates": [4.783465, 45.744219] },
      "properties": {
        "adresse": "Rue Jean-Léon Blondeau",
        "codinsee": "69202",
        "infoloc": "Angle chemin des fonds",
        "payant": true,
        "unisexe": true,
        "provenance": "Métropole de Lyon, Open Street Map",
        "gid": 1227
      }
    },
    {
      "type": "Feature",
      "id": "adr_voie_lieu.adrtoilettepublique_latest.1228",
      "geometry": { "type": "Point", "coordinates": [4.793176, 45.694575] },
      "properties": {
        "adresse": " Place Maréchal Joffre",
        "codinsee": "69204",
        "infoloc": "Place Maréchal Joffre",
        "acceshandi": true,
        "payant": false,
        "provenance": "ville de Saint-Genis-Laval, Métropole de Lyon, Open Street Map",
        "gid": 1228
      }
    },
    {
      "type": "Feature",
      "id": "adr_voie_lieu.adrtoilettepublique_latest.1229",
      "geometry": { "type": "Point", "coordinates": [4.788067, 45.70047] },
      "properties": {
        "adresse": " Rue De L’égalité",
        "codinsee": "69204",
        "infoloc": "Au croisement de la rue du Frère Benoît",
        "acceshandi": true,
        "payant": false,
        "provenance": "ville de Saint-Genis-Laval, Métropole de Lyon, Open Street Map",
        "gid": 1229
      }
    },
    {
      "type": "Feature",
      "id": "adr_voie_lieu.adrtoilettepublique_latest.1230",
      "geometry": { "type": "Point", "coordinates": [4.787296, 45.693722] },
      "properties": {
        "adresse": " Rue Edouard Millaud",
        "codinsee": "69204",
        "infoloc": "Vers la Maison Ricard",
        "acceshandi": true,
        "payant": false,
        "unisexe": true,
        "provenance": "ville de Saint-Genis-Laval, Open Street Map",
        "gid": 1230
      }
    },
    {
      "type": "Feature",
      "id": "adr_voie_lieu.adrtoilettepublique_latest.1231",
      "geometry": { "type": "Point", "coordinates": [4.781955, 45.679337] },
      "properties": {
        "adresse": "2 Allée Marcellin Champagnat",
        "codinsee": "69204",
        "provenance": "Open Street Map",
        "gid": 1231
      }
    },
    {
      "type": "Feature",
      "id": "adr_voie_lieu.adrtoilettepublique_latest.1232",
      "geometry": { "type": "Point", "coordinates": [4.73731, 45.757011] },
      "properties": {
        "adresse": "9 Rue Des Mourrons",
        "codinsee": "69205",
        "infoloc": "Intérieur du cimetière",
        "provenance": "Métropole de Lyon, Open Street Map",
        "gid": 1232
      }
    },
    {
      "type": "Feature",
      "id": "adr_voie_lieu.adrtoilettepublique_latest.1233",
      "geometry": { "type": "Point", "coordinates": [4.725475, 45.75642] },
      "properties": {
        "adresse": "Place De La Mairie",
        "codinsee": "69205",
        "provenance": "Métropole de Lyon, Open Street Map",
        "gid": 1233
      }
    },
    {
      "type": "Feature",
      "id": "adr_voie_lieu.adrtoilettepublique_latest.1234",
      "geometry": { "type": "Point", "coordinates": [4.822877, 45.837489] },
      "properties": {
        "adresse": "Rue De La Charriere",
        "codinsee": "69233",
        "infoloc": "Vers n°4",
        "acceshandi": true,
        "payant": true,
        "provenance": "Métropole de Lyon, Open Street Map",
        "gid": 1234
      }
    },
    {
      "type": "Feature",
      "id": "adr_voie_lieu.adrtoilettepublique_latest.1235",
      "geometry": { "type": "Point", "coordinates": [4.766324, 45.763004] },
      "properties": {
        "adresse": "1 Rue de Belgique",
        "codinsee": "69244",
        "payant": true,
        "unisexe": true,
        "provenance": "Open Street Map",
        "gid": 1235
      }
    },
    {
      "type": "Feature",
      "id": "adr_voie_lieu.adrtoilettepublique_latest.1236",
      "geometry": { "type": "Point", "coordinates": [4.778559, 45.762421] },
      "properties": {
        "adresse": "12 Promenade des Tuileries",
        "codinsee": "69244",
        "acceshandi": true,
        "payant": true,
        "unisexe": true,
        "provenance": "Open Street Map",
        "gid": 1236
      }
    },
    {
      "type": "Feature",
      "id": "adr_voie_lieu.adrtoilettepublique_latest.1238",
      "geometry": { "type": "Point", "coordinates": [4.776079, 45.760847] },
      "properties": {
        "adresse": "Avenue Général Leclerc",
        "codinsee": "69244",
        "acceshandi": true,
        "payant": true,
        "provenance": "Open Street Map",
        "gid": 1238
      }
    },
    {
      "type": "Feature",
      "id": "adr_voie_lieu.adrtoilettepublique_latest.1239",
      "geometry": { "type": "Point", "coordinates": [4.765928, 45.751443] },
      "properties": {
        "adresse": "Rue Professeur Deperet",
        "codinsee": "69244",
        "infoloc": "Sur le parking du rond-point d'alaï",
        "provenance": "Métropole de Lyon, Open Street Map",
        "gid": 1239
      }
    },
    {
      "type": "Feature",
      "id": "adr_voie_lieu.adrtoilettepublique_latest.1240",
      "geometry": { "type": "Point", "coordinates": [4.719759, 45.804607] },
      "properties": {
        "adresse": "28  Avenue Du Casino",
        "codinsee": "69250",
        "infoloc": "Dans le cadre de l'hippodrome",
        "acceshandi": true,
        "payant": false,
        "hommes": true,
        "femmes": true,
        "provenance": "ville de La Tour-de-Salvagny, Open Street Map",
        "gid": 1240
      }
    },
    {
      "type": "Feature",
      "id": "adr_voie_lieu.adrtoilettepublique_latest.1241",
      "geometry": { "type": "Point", "coordinates": [4.715086, 45.813493] },
      "properties": {
        "adresse": "5  Allée De La Mairie",
        "codinsee": "69250",
        "infoloc": "RDC Accès rampe PMR",
        "acceshandi": true,
        "payant": false,
        "provenance": "ville de La Tour-de-Salvagny, Métropole de Lyon, Open Street Map",
        "gid": 1241
      }
    },
    {
      "type": "Feature",
      "id": "adr_voie_lieu.adrtoilettepublique_latest.1242",
      "geometry": { "type": "Point", "coordinates": [4.715538, 45.814181] },
      "properties": {
        "adresse": "Place De La Mairie",
        "codinsee": "69250",
        "infoloc": "Sur la place en face de la mairie",
        "acceshandi": true,
        "payant": false,
        "provenance": "ville de La Tour-de-Salvagny, Métropole de Lyon, Open Street Map",
        "gid": 1242
      }
    },
    {
      "type": "Feature",
      "id": "adr_voie_lieu.adrtoilettepublique_latest.1243",
      "geometry": { "type": "Point", "coordinates": [4.927368, 45.766828] },
      "properties": {
        "adresse": "10 Rue des Droits de l'Homme",
        "codinsee": "69256",
        "payant": true,
        "unisexe": true,
        "provenance": "Open Street Map",
        "gid": 1243
      }
    },
    {
      "type": "Feature",
      "id": "adr_voie_lieu.adrtoilettepublique_latest.1244",
      "geometry": { "type": "Point", "coordinates": [4.920942, 45.764223] },
      "properties": {
        "adresse": "2 Rue Jacquard",
        "codinsee": "69256",
        "acceshandi": true,
        "payant": true,
        "provenance": "Open Street Map",
        "gid": 1244
      }
    },
    {
      "type": "Feature",
      "id": "adr_voie_lieu.adrtoilettepublique_latest.1245",
      "geometry": { "type": "Point", "coordinates": [4.922008, 45.766339] },
      "properties": {
        "adresse": "21 Avenue de Böhlen",
        "codinsee": "69256",
        "provenance": "Open Street Map",
        "gid": 1245
      }
    },
    {
      "type": "Feature",
      "id": "adr_voie_lieu.adrtoilettepublique_latest.1246",
      "geometry": { "type": "Point", "coordinates": [4.912336, 45.784995] },
      "properties": {
        "adresse": "5  Rue Des Frères Bertrand",
        "codinsee": "69256",
        "infoloc": "local placiers",
        "payant": false,
        "openinghoursspecification": [
          {
            "opens": "07:00",
            "closes": "12:00",
            "dayOfWeek": [
              "http://schema.org/Wednesday",
              "http://schema.org/Saturday"
            ]
          }
        ],
        "provenance": "ville de Vaulx-en-Velin, Métropole de Lyon, Open Street Map",
        "gid": 1246
      }
    },
    {
      "type": "Feature",
      "id": "adr_voie_lieu.adrtoilettepublique_latest.1247",
      "geometry": { "type": "Point", "coordinates": [4.924975, 45.761049] },
      "properties": {
        "adresse": "Allée Du Textile",
        "codinsee": "69256",
        "infoloc": "Esplanade Tase",
        "acceshandi": true,
        "payant": false,
        "provenance": "ville de Vaulx-en-Velin, Métropole de Lyon, Open Street Map",
        "gid": 1247
      }
    },
    {
      "type": "Feature",
      "id": "adr_voie_lieu.adrtoilettepublique_latest.1248",
      "geometry": { "type": "Point", "coordinates": [4.948516, 45.795595] },
      "properties": {
        "adresse": "Allée du Fontanil",
        "codinsee": "69256",
        "provenance": "Open Street Map",
        "gid": 1248
      }
    },
    {
      "type": "Feature",
      "id": "adr_voie_lieu.adrtoilettepublique_latest.1249",
      "geometry": { "type": "Point", "coordinates": [4.940178, 45.800156] },
      "properties": {
        "adresse": "Chemin de la Bletta",
        "codinsee": "69256",
        "provenance": "Open Street Map",
        "gid": 1249
      }
    },
    {
      "type": "Feature",
      "id": "adr_voie_lieu.adrtoilettepublique_latest.1250",
      "geometry": { "type": "Point", "coordinates": [4.940541, 45.798926] },
      "properties": {
        "adresse": "Chemin de la Bletta",
        "codinsee": "69256",
        "acceshandi": true,
        "payant": true,
        "provenance": "Open Street Map",
        "gid": 1250
      }
    },
    {
      "type": "Feature",
      "id": "adr_voie_lieu.adrtoilettepublique_latest.1251",
      "geometry": { "type": "Point", "coordinates": [4.940278, 45.799329] },
      "properties": {
        "adresse": "Chemin de la Bletta",
        "codinsee": "69256",
        "provenance": "Open Street Map",
        "gid": 1251
      }
    },
    {
      "type": "Feature",
      "id": "adr_voie_lieu.adrtoilettepublique_latest.1252",
      "geometry": { "type": "Point", "coordinates": [4.935285, 45.802402] },
      "properties": {
        "adresse": "Lieudit La Fève",
        "codinsee": "69256",
        "acceshandi": true,
        "payant": true,
        "provenance": "Open Street Map",
        "gid": 1252
      }
    },
    {
      "type": "Feature",
      "id": "adr_voie_lieu.adrtoilettepublique_latest.1253",
      "geometry": { "type": "Point", "coordinates": [4.929136, 45.785766] },
      "properties": {
        "adresse": "Place Antoine Saunier",
        "codinsee": "69256",
        "acceshandi": true,
        "payant": false,
        "provenance": "ville de Vaulx-en-Velin, Métropole de Lyon, Open Street Map",
        "gid": 1253
      }
    },
    {
      "type": "Feature",
      "id": "adr_voie_lieu.adrtoilettepublique_latest.1254",
      "geometry": { "type": "Point", "coordinates": [4.920882, 45.78681] },
      "properties": {
        "adresse": "Place Gilbert Dru",
        "codinsee": "69256",
        "infoloc": "angle rues République/Lakanal",
        "acceshandi": true,
        "payant": false,
        "provenance": "ville de Vaulx-en-Velin, Métropole de Lyon, Open Street Map",
        "gid": 1254
      }
    },
    {
      "type": "Feature",
      "id": "adr_voie_lieu.adrtoilettepublique_latest.1255",
      "geometry": { "type": "Point", "coordinates": [4.925461, 45.777525] },
      "properties": {
        "adresse": "Place Noël Carmellino",
        "codinsee": "69256",
        "infoloc": "22 Avenue Dimitrov / Place Noël Carmellino",
        "payant": false,
        "openinghoursspecification": [
          {
            "opens": "07:00",
            "closes": "12:00",
            "dayOfWeek": ["http://schema.org/Thursday"]
          }
        ],
        "provenance": "ville de Vaulx-en-Velin, Métropole de Lyon, Open Street Map",
        "gid": 1255
      }
    },
    {
      "type": "Feature",
      "id": "adr_voie_lieu.adrtoilettepublique_latest.1256",
      "geometry": { "type": "Point", "coordinates": [4.919855, 45.770366] },
      "properties": {
        "adresse": "Place Roger Laurent",
        "codinsee": "69256",
        "infoloc": "Angle avenue grandclément",
        "acceshandi": true,
        "provenance": "Métropole de Lyon, Open Street Map",
        "gid": 1256
      }
    },
    {
      "type": "Feature",
      "id": "adr_voie_lieu.adrtoilettepublique_latest.1257",
      "geometry": { "type": "Point", "coordinates": [4.917286, 45.777623] },
      "properties": {
        "adresse": "Rue François Rabelais",
        "codinsee": "69256",
        "infoloc": "Face au n°34",
        "acceshandi": true,
        "payant": true,
        "provenance": "Métropole de Lyon, Open Street Map",
        "gid": 1257
      }
    },
    {
      "type": "Feature",
      "id": "adr_voie_lieu.adrtoilettepublique_latest.1259",
      "geometry": { "type": "Point", "coordinates": [4.888203, 45.706117] },
      "properties": {
        "adresse": "2 Boulevard Ambroise Croizat",
        "codinsee": "69259",
        "acceshandi": true,
        "payant": true,
        "unisexe": true,
        "provenance": "Open Street Map",
        "gid": 1259
      }
    },
    {
      "type": "Feature",
      "id": "adr_voie_lieu.adrtoilettepublique_latest.1260",
      "geometry": { "type": "Point", "coordinates": [4.886068, 45.71727] },
      "properties": {
        "adresse": "2 Place Jeanne d'Arc",
        "codinsee": "69259",
        "provenance": "Open Street Map",
        "gid": 1260
      }
    },
    {
      "type": "Feature",
      "id": "adr_voie_lieu.adrtoilettepublique_latest.1261",
      "geometry": { "type": "Point", "coordinates": [4.884613, 45.699938] },
      "properties": {
        "adresse": "32 Rue du Château",
        "codinsee": "69259",
        "acceshandi": true,
        "payant": true,
        "provenance": "Open Street Map",
        "gid": 1261
      }
    },
    {
      "type": "Feature",
      "id": "adr_voie_lieu.adrtoilettepublique_latest.1262",
      "geometry": { "type": "Point", "coordinates": [4.883163, 45.70332] },
      "properties": {
        "adresse": "41bis Boulevard Laurent Gérin",
        "codinsee": "69259",
        "acceshandi": true,
        "payant": true,
        "provenance": "Open Street Map",
        "gid": 1262
      }
    },
    {
      "type": "Feature",
      "id": "adr_voie_lieu.adrtoilettepublique_latest.1263",
      "geometry": { "type": "Point", "coordinates": [4.887313, 45.719026] },
      "properties": {
        "adresse": "5A Place Jules Grandclément",
        "codinsee": "69259",
        "acceshandi": true,
        "payant": true,
        "provenance": "Open Street Map",
        "gid": 1263
      }
    },
    {
      "type": "Feature",
      "id": "adr_voie_lieu.adrtoilettepublique_latest.1264",
      "geometry": { "type": "Point", "coordinates": [4.866287, 45.690599] },
      "properties": {
        "adresse": "99 Rue des Martyrs de la Résistance",
        "codinsee": "69259",
        "acceshandi": true,
        "payant": true,
        "provenance": "Open Street Map",
        "gid": 1264
      }
    },
    {
      "type": "Feature",
      "id": "adr_voie_lieu.adrtoilettepublique_latest.1265",
      "geometry": { "type": "Point", "coordinates": [4.85858, 45.724922] },
      "properties": {
        "adresse": "Place Ennemond Romand",
        "codinsee": "69259",
        "provenance": "Métropole de Lyon, Open Street Map",
        "gid": 1265
      }
    },
    {
      "type": "Feature",
      "id": "adr_voie_lieu.adrtoilettepublique_latest.1266",
      "geometry": { "type": "Point", "coordinates": [4.88252, 45.699501] },
      "properties": {
        "adresse": "Place Henri Barbusse",
        "codinsee": "69259",
        "acceshandi": true,
        "payant": true,
        "provenance": "Open Street Map",
        "gid": 1266
      }
    },